[
  {
    "name": "London Heathrow Airport",
    "latitude": 51.4706,
    "longitude": -0.461941,
    "iataCode": "LHR",
    "country": "GB",
    "municipality": "London"
  },
  {
    "name": "Los Angeles International Airport",
    "latitude": 33.94250107,
    "longitude": -118.4079971,
    "iataCode": "LAX",
    "country": "US",
    "municipality": "Los Angeles"
  },
  {
    "name": "Chicago O'Hare International Airport",
    "latitude": 41.9786,
    "longitude": -87.9048,
    "iataCode": "ORD",
    "country": "US",
    "municipality": "Chicago"
  },
  {
    "name": "John F Kennedy International Airport",
    "latitude": 40.63980103,
    "longitude": -73.77890015,
    "iataCode": "JFK",
    "country": "US",
    "municipality": "New York"
  },
  {
    "name": "Hartsfield Jackson Atlanta International Airport",
    "latitude": 33.6367,
    "longitude": -84.428101,
    "iataCode": "ATL",
    "country": "US",
    "municipality": "Atlanta"
  },
  {
    "name": "Amsterdam Airport Schiphol",
    "latitude": 52.308601,
    "longitude": 4.76389,
    "iataCode": "AMS",
    "country": "NL",
    "municipality": "Amsterdam"
  },
  {
    "name": "Charles de Gaulle International Airport",
    "latitude": 49.012798,
    "longitude": 2.55,
    "iataCode": "CDG",
    "country": "FR",
    "municipality": "Paris"
  },
  {
    "name": "San Francisco International Airport",
    "latitude": 37.61899948120117,
    "longitude": -122.375,
    "iataCode": "SFO",
    "country": "US",
    "municipality": "San Francisco"
  },
  {
    "name": "Frankfurt am Main Airport",
    "latitude": 50.033333,
    "longitude": 8.570556,
    "iataCode": "FRA",
    "country": "DE",
    "municipality": "Frankfurt am Main"
  },
  {
    "name": "Newark Liberty International Airport",
    "latitude": 40.692501068115234,
    "longitude": -74.168701171875,
    "iataCode": "EWR",
    "country": "US",
    "municipality": "Newark"
  },
  {
    "name": "Dallas Fort Worth International Airport",
    "latitude": 32.896801,
    "longitude": -97.038002,
    "iataCode": "DFW",
    "country": "US",
    "municipality": "Dallas-Fort Worth"
  },
  {
    "name": "McCarran International Airport",
    "latitude": 36.08010101,
    "longitude": -115.1520004,
    "iataCode": "LAS",
    "country": "US",
    "municipality": "Las Vegas"
  },
  {
    "name": "Orlando International Airport",
    "latitude": 28.429399490356445,
    "longitude": -81.30899810791016,
    "iataCode": "MCO",
    "country": "US",
    "municipality": "Orlando"
  },
  {
    "name": "La Guardia Airport",
    "latitude": 40.77719879,
    "longitude": -73.87259674,
    "iataCode": "LGA",
    "country": "US",
    "municipality": "New York"
  },
  {
    "name": "Denver International Airport",
    "latitude": 39.861698150635,
    "longitude": -104.672996521,
    "iataCode": "DEN",
    "country": "US",
    "municipality": "Denver"
  },
  {
    "name": "Washington Dulles International Airport",
    "latitude": 38.94449997,
    "longitude": -77.45580292,
    "iataCode": "IAD",
    "country": "US",
    "municipality": "Washington"
  },
  {
    "name": "Miami International Airport",
    "latitude": 25.79319953918457,
    "longitude": -80.29060363769531,
    "iataCode": "MIA",
    "country": "US",
    "municipality": "Miami"
  },
  {
    "name": "Phoenix Sky Harbor International Airport",
    "latitude": 33.43429946899414,
    "longitude": -112.01200103759766,
    "iataCode": "PHX",
    "country": "US",
    "municipality": "Phoenix"
  },
  {
    "name": "General Edward Lawrence Logan International Airport",
    "latitude": 42.36429977,
    "longitude": -71.00520325,
    "iataCode": "BOS",
    "country": "US",
    "municipality": "Boston"
  },
  {
    "name": "Seattle Tacoma International Airport",
    "latitude": 47.449001,
    "longitude": -122.308998,
    "iataCode": "SEA",
    "country": "US",
    "municipality": "Seattle"
  },
  {
    "name": "London Gatwick Airport",
    "latitude": 51.148102,
    "longitude": -0.190278,
    "iataCode": "LGW",
    "country": "GB",
    "municipality": "London"
  },
  {
    "name": "Philadelphia International Airport",
    "latitude": 39.87189865112305,
    "longitude": -75.24109649658203,
    "iataCode": "PHL",
    "country": "US",
    "municipality": "Philadelphia"
  },
  {
    "name": "George Bush Intercontinental Houston Airport",
    "latitude": 29.984399795532227,
    "longitude": -95.34140014648438,
    "iataCode": "IAH",
    "country": "US",
    "municipality": "Houston"
  },
  {
    "name": "Charlotte Douglas International Airport",
    "latitude": 35.2140007019043,
    "longitude": -80.94309997558594,
    "iataCode": "CLT",
    "country": "US",
    "municipality": "Charlotte"
  },
  {
    "name": "Detroit Metropolitan Wayne County Airport",
    "latitude": 42.212398529052734,
    "longitude": -83.35340118408203,
    "iataCode": "DTW",
    "country": "US",
    "municipality": "Detroit"
  },
  {
    "name": "Lester B. Pearson International Airport",
    "latitude": 43.6772003174,
    "longitude": -79.63059997559999,
    "iataCode": "YYZ",
    "country": "CA",
    "municipality": "Toronto"
  },
  {
    "name": "Ronald Reagan Washington National Airport",
    "latitude": 38.8521,
    "longitude": -77.037697,
    "iataCode": "DCA",
    "country": "US",
    "municipality": "Washington"
  },
  {
    "name": "Minneapolis-St Paul International/Wold-Chamberlain Airport",
    "latitude": 44.882,
    "longitude": -93.221802,
    "iataCode": "MSP",
    "country": "US",
    "municipality": "Minneapolis"
  },
  {
    "name": "Munich Airport",
    "latitude": 48.353802,
    "longitude": 11.7861,
    "iataCode": "MUC",
    "country": "DE",
    "municipality": "Munich"
  },
  {
    "name": "Barcelona International Airport",
    "latitude": 41.2971,
    "longitude": 2.07846,
    "iataCode": "BCN",
    "country": "ES",
    "municipality": "Barcelona"
  },
  {
    "name": "Leonardo da Vinci–Fiumicino Airport",
    "latitude": 41.8002778,
    "longitude": 12.2388889,
    "iataCode": "FCO",
    "country": "IT",
    "municipality": "Rome"
  },
  {
    "name": "Adolfo Suárez Madrid–Barajas Airport",
    "latitude": 40.471926,
    "longitude": -3.56264,
    "iataCode": "MAD",
    "country": "ES",
    "municipality": "Madrid"
  },
  {
    "name": "Brussels Airport",
    "latitude": 50.901401519800004,
    "longitude": 4.48443984985,
    "iataCode": "BRU",
    "country": "BE",
    "municipality": "Brussels"
  },
  {
    "name": "Copenhagen Kastrup Airport",
    "latitude": 55.617900848389,
    "longitude": 12.656000137329,
    "iataCode": "CPH",
    "country": "DK",
    "municipality": "Copenhagen"
  },
  {
    "name": "Zürich Airport",
    "latitude": 47.464699,
    "longitude": 8.54917,
    "iataCode": "ZRH",
    "country": "CH",
    "municipality": "Zurich"
  },
  {
    "name": "San Diego International Airport",
    "latitude": 32.7336006165,
    "longitude": -117.190002441,
    "iataCode": "SAN",
    "country": "US",
    "municipality": "San Diego"
  },
  {
    "name": "Salt Lake City International Airport",
    "latitude": 40.78839874267578,
    "longitude": -111.97799682617188,
    "iataCode": "SLC",
    "country": "US",
    "municipality": "Salt Lake City"
  },
  {
    "name": "Chicago Midway International Airport",
    "latitude": 41.785999,
    "longitude": -87.752403,
    "iataCode": "MDW",
    "country": "US",
    "municipality": "Chicago"
  },
  {
    "name": "Fort Lauderdale Hollywood International Airport",
    "latitude": 26.072599,
    "longitude": -80.152702,
    "iataCode": "FLL",
    "country": "US",
    "municipality": "Fort Lauderdale"
  },
  {
    "name": "Baltimore/Washington International Thurgood Marshall Airport",
    "latitude": 39.1754,
    "longitude": -76.668297,
    "iataCode": "BWI",
    "country": "US",
    "municipality": "Baltimore"
  },
  {
    "name": "Dublin Airport",
    "latitude": 53.421299,
    "longitude": -6.27007,
    "iataCode": "DUB",
    "country": "IE",
    "municipality": "Dublin"
  },
  {
    "name": "Singapore Changi Airport",
    "latitude": 1.35019,
    "longitude": 103.994003,
    "iataCode": "SIN",
    "country": "SG",
    "municipality": "Singapore"
  },
  {
    "name": "Vienna International Airport",
    "latitude": 48.110298156738,
    "longitude": 16.569700241089,
    "iataCode": "VIE",
    "country": "AT",
    "municipality": "Vienna"
  },
  {
    "name": "Narita International Airport",
    "latitude": 35.7647018433,
    "longitude": 140.386001587,
    "iataCode": "NRT",
    "country": "JP",
    "municipality": "Tokyo"
  },
  {
    "name": "Vancouver International Airport",
    "latitude": 49.193901062,
    "longitude": -123.183998108,
    "iataCode": "YVR",
    "country": "CA",
    "municipality": "Vancouver"
  },
  {
    "name": "St Louis Lambert International Airport",
    "latitude": 38.748697,
    "longitude": -90.370003,
    "iataCode": "STL",
    "country": "US",
    "municipality": "St Louis"
  },
  {
    "name": "Daniel K Inouye International Airport",
    "latitude": 21.32062,
    "longitude": -157.924228,
    "iataCode": "HNL",
    "country": "US",
    "municipality": "Honolulu"
  },
  {
    "name": "Montreal / Pierre Elliott Trudeau International Airport",
    "latitude": 45.4706001282,
    "longitude": -73.7407989502,
    "iataCode": "YUL",
    "country": "CA",
    "municipality": "Montréal"
  },
  {
    "name": "Dubai International Airport",
    "latitude": 25.2527999878,
    "longitude": 55.3643989563,
    "iataCode": "DXB",
    "country": "AE",
    "municipality": "Dubai"
  },
  {
    "name": "London Stansted Airport",
    "latitude": 51.8849983215,
    "longitude": 0.234999999404,
    "iataCode": "STN",
    "country": "GB",
    "municipality": "London"
  },
  {
    "name": "Václav Havel Airport Prague",
    "latitude": 50.1008,
    "longitude": 14.26,
    "iataCode": "PRG",
    "country": "CZ",
    "municipality": "Prague"
  },
  {
    "name": "Portland International Airport",
    "latitude": 45.58869934,
    "longitude": -122.5979996,
    "iataCode": "PDX",
    "country": "US",
    "municipality": "Portland"
  },
  {
    "name": "Hong Kong International Airport",
    "latitude": 22.308901,
    "longitude": 113.915001,
    "iataCode": "HKG",
    "country": "HK",
    "municipality": "Hong Kong"
  },
  {
    "name": "Stockholm-Arlanda Airport",
    "latitude": 59.651901245117,
    "longitude": 17.918600082397,
    "iataCode": "ARN",
    "country": "SE",
    "municipality": "Stockholm"
  },
  {
    "name": "Humberto Delgado Airport (Lisbon Portela Airport)",
    "latitude": 38.7813,
    "longitude": -9.13592,
    "iataCode": "LIS",
    "country": "PT",
    "municipality": "Lisbon"
  },
  {
    "name": "Cincinnati Northern Kentucky International Airport",
    "latitude": 39.0488014221,
    "longitude": -84.6678009033,
    "iataCode": "CVG",
    "country": "US",
    "municipality": "Cincinnati"
  },
  {
    "name": "Louis Armstrong New Orleans International Airport",
    "latitude": 29.99340057373047,
    "longitude": -90.25800323486328,
    "iataCode": "MSY",
    "country": "US",
    "municipality": "New Orleans"
  },
  {
    "name": "Sydney Kingsford Smith International Airport",
    "latitude": -33.94609832763672,
    "longitude": 151.177001953125,
    "iataCode": "SYD",
    "country": "AU",
    "municipality": "Sydney"
  },
  {
    "name": "Tampa International Airport",
    "latitude": 27.975500106811523,
    "longitude": -82.533203125,
    "iataCode": "TPA",
    "country": "US",
    "municipality": "Tampa"
  },
  {
    "name": "Atatürk International Airport",
    "latitude": 40.976898,
    "longitude": 28.8146,
    "iataCode": "ISL",
    "country": "TR",
    "municipality": "Istanbul"
  },
  {
    "name": "Berlin-Tegel Airport",
    "latitude": 52.5597,
    "longitude": 13.2877,
    "iataCode": "TXL",
    "country": "DE",
    "municipality": "Berlin"
  },
  {
    "name": "Suvarnabhumi Airport",
    "latitude": 13.681099891662598,
    "longitude": 100.74700164794922,
    "iataCode": "BKK",
    "country": "TH",
    "municipality": "Bangkok"
  },
  {
    "name": "Nashville International Airport",
    "latitude": 36.1245002746582,
    "longitude": -86.6781997680664,
    "iataCode": "BNA",
    "country": "US",
    "municipality": "Nashville"
  },
  {
    "name": "Pittsburgh International Airport",
    "latitude": 40.49150085,
    "longitude": -80.23290253,
    "iataCode": "PIT",
    "country": "US",
    "municipality": "Pittsburgh"
  },
  {
    "name": "Malpensa International Airport",
    "latitude": 45.6306,
    "longitude": 8.72811,
    "iataCode": "MXP",
    "country": "IT",
    "municipality": "Milan"
  },
  {
    "name": "Austin Bergstrom International Airport",
    "latitude": 30.194499969482422,
    "longitude": -97.6698989868164,
    "iataCode": "AUS",
    "country": "US",
    "municipality": "Austin"
  },
  {
    "name": "Norman Y. Mineta San Jose International Airport",
    "latitude": 37.362598,
    "longitude": -121.929001,
    "iataCode": "SJC",
    "country": "US",
    "municipality": "San Jose"
  },
  {
    "name": "Metropolitan Oakland International Airport",
    "latitude": 37.721298,
    "longitude": -122.221001,
    "iataCode": "OAK",
    "country": "US",
    "municipality": "Oakland"
  },
  {
    "name": "Budapest Liszt Ferenc International Airport",
    "latitude": 47.42976,
    "longitude": 19.261093,
    "iataCode": "BUD",
    "country": "HU",
    "municipality": "Budapest"
  },
  {
    "name": "Oslo Gardermoen Airport",
    "latitude": 60.193901062012,
    "longitude": 11.100399971008,
    "iataCode": "OSL",
    "country": "NO",
    "municipality": "Oslo"
  },
  {
    "name": "Raleigh Durham International Airport",
    "latitude": 35.877601623535156,
    "longitude": -78.7874984741211,
    "iataCode": "RDU",
    "country": "US",
    "municipality": "Raleigh/Durham"
  },
  {
    "name": "Cancún International Airport",
    "latitude": 21.036500930800003,
    "longitude": -86.8770980835,
    "iataCode": "CUN",
    "country": "MX",
    "municipality": "Cancún"
  },
  {
    "name": "Memphis International Airport",
    "latitude": 35.04240036010742,
    "longitude": -89.97669982910156,
    "iataCode": "MEM",
    "country": "US",
    "municipality": "Memphis"
  },
  {
    "name": "Eleftherios Venizelos International Airport",
    "latitude": 37.9364013672,
    "longitude": 23.9444999695,
    "iataCode": "ATH",
    "country": "GR",
    "municipality": "Athens"
  },
  {
    "name": "Kansas City International Airport",
    "latitude": 39.2976,
    "longitude": -94.713898,
    "iataCode": "MCI",
    "country": "US",
    "municipality": "Kansas City"
  },
  {
    "name": "Geneva Cointrin International Airport",
    "latitude": 46.23809814453125,
    "longitude": 6.108950138092041,
    "iataCode": "GVA",
    "country": "CH",
    "municipality": "Geneva"
  },
  {
    "name": "San Antonio International Airport",
    "latitude": 29.533700942993164,
    "longitude": -98.46980285644531,
    "iataCode": "SAT",
    "country": "US",
    "municipality": "San Antonio"
  },
  {
    "name": "William P Hobby Airport",
    "latitude": 29.64539909,
    "longitude": -95.27890015,
    "iataCode": "HOU",
    "country": "US",
    "municipality": "Houston"
  },
  {
    "name": "Paris-Orly Airport",
    "latitude": 48.7233333,
    "longitude": 2.3794444,
    "iataCode": "ORY",
    "country": "FR",
    "municipality": "Paris"
  },
  {
    "name": "Helsinki Vantaa Airport",
    "latitude": 60.317199707031,
    "longitude": 24.963300704956,
    "iataCode": "HEL",
    "country": "FI",
    "municipality": "Helsinki"
  },
  {
    "name": "Manchester Airport",
    "latitude": 53.35369873046875,
    "longitude": -2.2749500274658203,
    "iataCode": "MAN",
    "country": "GB",
    "municipality": "Manchester"
  },
  {
    "name": "John Wayne Airport-Orange County Airport",
    "latitude": 33.67570114,
    "longitude": -117.8679962,
    "iataCode": "SNA",
    "country": "US",
    "municipality": "Santa Ana"
  },
  {
    "name": "Beijing Capital International Airport",
    "latitude": 40.080101013183594,
    "longitude": 116.58499908447266,
    "iataCode": "PEK",
    "country": "CN",
    "municipality": "Beijing"
  },
  {
    "name": "Düsseldorf Airport",
    "latitude": 51.289501,
    "longitude": 6.76678,
    "iataCode": "DUS",
    "country": "DE",
    "municipality": "Düsseldorf"
  },
  {
    "name": "Cleveland Hopkins International Airport",
    "latitude": 41.4117012024,
    "longitude": -81.8498001099,
    "iataCode": "CLE",
    "country": "US",
    "municipality": "Cleveland"
  },
  {
    "name": "Licenciado Benito Juarez International Airport",
    "latitude": 19.4363,
    "longitude": -99.072098,
    "iataCode": "MEX",
    "country": "MX",
    "municipality": "Mexico City"
  },
  {
    "name": "Calgary International Airport",
    "latitude": 51.113899231,
    "longitude": -114.019996643,
    "iataCode": "YYC",
    "country": "CA",
    "municipality": "Calgary"
  },
  {
    "name": "Kuala Lumpur International Airport",
    "latitude": 2.745579957962,
    "longitude": 101.70999908447,
    "iataCode": "KUL",
    "country": "MY",
    "municipality": "Kuala Lumpur"
  },
  {
    "name": "Dallas Love Field",
    "latitude": 32.847099,
    "longitude": -96.851799,
    "iataCode": "DAL",
    "country": "US",
    "municipality": "Dallas"
  },
  {
    "name": "Keflavik International Airport",
    "latitude": 63.985000610352,
    "longitude": -22.605600357056,
    "iataCode": "KEF",
    "country": "IS",
    "municipality": "Reykjavík"
  },
  {
    "name": "Indianapolis International Airport",
    "latitude": 39.7173,
    "longitude": -86.294403,
    "iataCode": "IND",
    "country": "US",
    "municipality": "Indianapolis"
  },
  {
    "name": "Albuquerque International Sunport",
    "latitude": 35.040199,
    "longitude": -106.609001,
    "iataCode": "ABQ",
    "country": "US",
    "municipality": "Albuquerque"
  },
  {
    "name": "Palma De Mallorca Airport",
    "latitude": 39.551700592,
    "longitude": 2.73881006241,
    "iataCode": "PMI",
    "country": "ES",
    "municipality": "Palma De Mallorca"
  },
  {
    "name": "Melbourne International Airport",
    "latitude": -37.673302,
    "longitude": 144.843002,
    "iataCode": "MEL",
    "country": "AU",
    "municipality": "Melbourne"
  },
  {
    "name": "General Mitchell International Airport",
    "latitude": 42.947200775146484,
    "longitude": -87.89659881591797,
    "iataCode": "MKE",
    "country": "US",
    "municipality": "Milwaukee"
  },
  {
    "name": "Venice Marco Polo Airport",
    "latitude": 45.505299,
    "longitude": 12.3519,
    "iataCode": "VCE",
    "country": "IT",
    "municipality": "Venice"
  },
  {
    "name": "Edinburgh Airport",
    "latitude": 55.95000076293945,
    "longitude": -3.372499942779541,
    "iataCode": "EDI",
    "country": "GB",
    "municipality": "Edinburgh"
  },
  {
    "name": "Shanghai Pudong International Airport",
    "latitude": 31.143400192260742,
    "longitude": 121.80500030517578,
    "iataCode": "PVG",
    "country": "CN",
    "municipality": "Shanghai"
  },
  {
    "name": "John Glenn Columbus International Airport",
    "latitude": 39.998001,
    "longitude": -82.891899,
    "iataCode": "CMH",
    "country": "US",
    "municipality": "Columbus"
  },
  {
    "name": "London Luton Airport",
    "latitude": 51.874698638916016,
    "longitude": -0.36833301186561584,
    "iataCode": "LTN",
    "country": "GB",
    "municipality": "London"
  },
  {
    "name": "Warsaw Chopin Airport",
    "latitude": 52.1656990051,
    "longitude": 20.967100143399996,
    "iataCode": "WAW",
    "country": "PL",
    "municipality": "Warsaw"
  },
  {
    "name": "OR Tambo International Airport",
    "latitude": -26.1392,
    "longitude": 28.246,
    "iataCode": "JNB",
    "country": "ZA",
    "municipality": "Johannesburg"
  },
  {
    "name": "Incheon International Airport",
    "latitude": 37.46910095214844,
    "longitude": 126.45099639892578,
    "iataCode": "ICN",
    "country": "KR",
    "municipality": "Seoul"
  },
  {
    "name": "Nice-Côte d'Azur Airport",
    "latitude": 43.6584014893,
    "longitude": 7.215869903560001,
    "iataCode": "NCE",
    "country": "FR",
    "municipality": "Nice"
  },
  {
    "name": "Málaga Airport",
    "latitude": 36.67490005493164,
    "longitude": -4.499110221862793,
    "iataCode": "AGP",
    "country": "ES",
    "municipality": "Málaga"
  },
  {
    "name": "Indira Gandhi International Airport",
    "latitude": 28.5665,
    "longitude": 77.103104,
    "iataCode": "DEL",
    "country": "IN",
    "municipality": "New Delhi"
  },
  {
    "name": "Berlin-Schönefeld Airport",
    "latitude": 52.380001,
    "longitude": 13.5225,
    "iataCode": "SXF",
    "country": "DE",
    "municipality": "Berlin"
  },
  {
    "name": "Luis Munoz Marin International Airport",
    "latitude": 18.4393997192,
    "longitude": -66.0018005371,
    "iataCode": "SJU",
    "country": "PR",
    "municipality": "San Juan"
  },
  {
    "name": "Ottawa Macdonald-Cartier International Airport",
    "latitude": 45.3224983215332,
    "longitude": -75.66919708251953,
    "iataCode": "YOW",
    "country": "CA",
    "municipality": "Ottawa"
  },
  {
    "name": "Sheremetyevo International Airport",
    "latitude": 55.972599,
    "longitude": 37.4146,
    "iataCode": "SVO",
    "country": "RU",
    "municipality": "Moscow"
  },
  {
    "name": "Tucson International Airport",
    "latitude": 32.1161003112793,
    "longitude": -110.94100189208984,
    "iataCode": "TUS",
    "country": "US",
    "municipality": "Tucson"
  },
  {
    "name": "Auckland International Airport",
    "latitude": -37.008098602299995,
    "longitude": 174.792007446,
    "iataCode": "AKL",
    "country": "NZ",
    "municipality": "Auckland"
  },
  {
    "name": "Hamburg Airport",
    "latitude": 53.630401611328,
    "longitude": 9.9882297515869,
    "iataCode": "HAM",
    "country": "DE",
    "municipality": "Hamburg"
  },
  {
    "name": "Cologne Bonn Airport",
    "latitude": 50.8658981323,
    "longitude": 7.1427397728,
    "iataCode": "CGN",
    "country": "DE",
    "municipality": "Cologne"
  },
  {
    "name": "Bradley International Airport",
    "latitude": 41.9388999939,
    "longitude": -72.68319702149999,
    "iataCode": "BDL",
    "country": "US",
    "municipality": "Hartford"
  },
  {
    "name": "Milano Linate Airport",
    "latitude": 45.445099,
    "longitude": 9.27674,
    "iataCode": "LIN",
    "country": "IT",
    "municipality": "Milan"
  },
  {
    "name": "Jacksonville International Airport",
    "latitude": 30.49410057067871,
    "longitude": -81.68789672851562,
    "iataCode": "JAX",
    "country": "US",
    "municipality": "Jacksonville"
  },
  {
    "name": "Buffalo Niagara International Airport",
    "latitude": 42.94049835,
    "longitude": -78.73220062,
    "iataCode": "BUF",
    "country": "US",
    "municipality": "Buffalo"
  },
  {
    "name": "Guarulhos - Governador André Franco Montoro International Airport",
    "latitude": -23.435556411743164,
    "longitude": -46.47305679321289,
    "iataCode": "GRU",
    "country": "BR",
    "municipality": "São Paulo"
  },
  {
    "name": "Don Mueang International Airport",
    "latitude": 13.9125995636,
    "longitude": 100.607002258,
    "iataCode": "DMK",
    "country": "TH",
    "municipality": "Bangkok"
  },
  {
    "name": "Ben Gurion International Airport",
    "latitude": 32.01139831542969,
    "longitude": 34.88669967651367,
    "iataCode": "TLV",
    "country": "IL",
    "municipality": "Tel Aviv"
  },
  {
    "name": "Ted Stevens Anchorage International Airport",
    "latitude": 61.174400329589844,
    "longitude": -149.99600219726562,
    "iataCode": "ANC",
    "country": "US",
    "municipality": "Anchorage"
  },
  {
    "name": "Ministro Pistarini International Airport",
    "latitude": -34.8222,
    "longitude": -58.5358,
    "iataCode": "EZE",
    "country": "AR",
    "municipality": "Buenos Aires"
  },
  {
    "name": "Cairo International Airport",
    "latitude": 30.12190055847168,
    "longitude": 31.40559959411621,
    "iataCode": "CAI",
    "country": "EG",
    "municipality": "Cairo"
  },
  {
    "name": "Ninoy Aquino International Airport",
    "latitude": 14.5086,
    "longitude": 121.019997,
    "iataCode": "MNL",
    "country": "PH",
    "municipality": "Manila"
  },
  {
    "name": "Abu Dhabi International Airport",
    "latitude": 24.433000564575195,
    "longitude": 54.651100158691406,
    "iataCode": "AUH",
    "country": "AE",
    "municipality": "Abu Dhabi"
  },
  {
    "name": "Chhatrapati Shivaji International Airport",
    "latitude": 19.0886993408,
    "longitude": 72.8678970337,
    "iataCode": "BOM",
    "country": "IN",
    "municipality": "Mumbai"
  },
  {
    "name": "Glasgow International Airport",
    "latitude": 55.871899,
    "longitude": -4.43306,
    "iataCode": "GLA",
    "country": "GB",
    "municipality": "Glasgow"
  },
  {
    "name": "Taiwan Taoyuan International Airport",
    "latitude": 25.0777,
    "longitude": 121.233002,
    "iataCode": "TPE",
    "country": "TW",
    "municipality": "Taipei"
  },
  {
    "name": "Ngurah Rai (Bali) International Airport",
    "latitude": -8.7481698989868,
    "longitude": 115.16699981689,
    "iataCode": "DPS",
    "country": "ID",
    "municipality": "Denpasar-Bali Island"
  },
  {
    "name": "Will Rogers World Airport",
    "latitude": 35.39310073852539,
    "longitude": -97.60070037841797,
    "iataCode": "OKC",
    "country": "US",
    "municipality": "Oklahoma City"
  },
  {
    "name": "Sacramento International Airport",
    "latitude": 38.69540023803711,
    "longitude": -121.59100341796875,
    "iataCode": "SMF",
    "country": "US",
    "municipality": "Sacramento"
  },
  {
    "name": "Brisbane International Airport",
    "latitude": -27.384199142456055,
    "longitude": 153.11700439453125,
    "iataCode": "BNE",
    "country": "AU",
    "municipality": "Brisbane"
  },
  {
    "name": "Cape Town International Airport",
    "latitude": -33.9648017883,
    "longitude": 18.6016998291,
    "iataCode": "CPT",
    "country": "ZA",
    "municipality": "Cape Town"
  },
  {
    "name": "Ciampino–G. B. Pastine International Airport",
    "latitude": 41.7994,
    "longitude": 12.5949,
    "iataCode": "CIA",
    "country": "IT",
    "municipality": "Rome"
  },
  {
    "name": "Edmonton International Airport",
    "latitude": 53.309700012200004,
    "longitude": -113.580001831,
    "iataCode": "YEG",
    "country": "CA",
    "municipality": "Edmonton"
  },
  {
    "name": "Jorge Chávez International Airport",
    "latitude": -12.0219,
    "longitude": -77.114305,
    "iataCode": "LIM",
    "country": "PE",
    "municipality": "Lima"
  },
  {
    "name": "Reno Tahoe International Airport",
    "latitude": 39.49909973144531,
    "longitude": -119.76799774169922,
    "iataCode": "RNO",
    "country": "US",
    "municipality": "Reno"
  },
  {
    "name": "Winnipeg / James Armstrong Richardson International Airport",
    "latitude": 49.909999847399995,
    "longitude": -97.2398986816,
    "iataCode": "YWG",
    "country": "CA",
    "municipality": "Winnipeg"
  },
  {
    "name": "Gran Canaria Airport",
    "latitude": 27.931900024414062,
    "longitude": -15.38659954071045,
    "iataCode": "LPA",
    "country": "ES",
    "municipality": "Gran Canaria Island"
  },
  {
    "name": "Stuttgart Airport",
    "latitude": 48.689899444599995,
    "longitude": 9.22196006775,
    "iataCode": "STR",
    "country": "DE",
    "municipality": "Stuttgart"
  },
  {
    "name": "Eppley Airfield",
    "latitude": 41.3032,
    "longitude": -95.894096,
    "iataCode": "OMA",
    "country": "US",
    "municipality": "Omaha"
  },
  {
    "name": "Theodore Francis Green State Airport",
    "latitude": 41.732601,
    "longitude": -71.420403,
    "iataCode": "PVD",
    "country": "US",
    "municipality": "Providence"
  },
  {
    "name": "Norfolk International Airport",
    "latitude": 36.89459991455078,
    "longitude": -76.20120239257812,
    "iataCode": "ORF",
    "country": "US",
    "municipality": "Norfolk"
  },
  {
    "name": "Palm Beach International Airport",
    "latitude": 26.68320083618164,
    "longitude": -80.09559631347656,
    "iataCode": "PBI",
    "country": "US",
    "municipality": "West Palm Beach"
  },
  {
    "name": "Birmingham International Airport",
    "latitude": 52.453899383499994,
    "longitude": -1.74802994728,
    "iataCode": "BHX",
    "country": "GB",
    "municipality": "Birmingham"
  },
  {
    "name": "Tokyo Haneda International Airport",
    "latitude": 35.552299,
    "longitude": 139.779999,
    "iataCode": "HND",
    "country": "JP",
    "municipality": "Tokyo"
  },
  {
    "name": "Charleston Air Force Base-International Airport",
    "latitude": 32.89860153,
    "longitude": -80.04049683,
    "iataCode": "CHS",
    "country": "US",
    "municipality": "Charleston"
  },
  {
    "name": "Malta International Airport",
    "latitude": 35.857498,
    "longitude": 14.4775,
    "iataCode": "MLA",
    "country": "MT",
    "municipality": "Valletta"
  },
  {
    "name": "Rio Galeão – Tom Jobim International Airport",
    "latitude": -22.8099994659,
    "longitude": -43.2505569458,
    "iataCode": "GIG",
    "country": "BR",
    "municipality": "Rio De Janeiro"
  },
  {
    "name": "Comodoro Arturo Merino Benítez International Airport",
    "latitude": -33.393001556396484,
    "longitude": -70.78579711914062,
    "iataCode": "SCL",
    "country": "CL",
    "municipality": "Santiago"
  },
  {
    "name": "Louisville Muhammad Ali International Airport",
    "latitude": 38.1744,
    "longitude": -85.736,
    "iataCode": "SDF",
    "country": "US",
    "municipality": "Louisville"
  },
  {
    "name": "Halifax / Stanfield International Airport",
    "latitude": 44.8807983398,
    "longitude": -63.5085983276,
    "iataCode": "YHZ",
    "country": "CA",
    "municipality": "Halifax"
  },
  {
    "name": "Riga International Airport",
    "latitude": 56.92359924316406,
    "longitude": 23.971099853515625,
    "iataCode": "RIX",
    "country": "LV",
    "municipality": "Riga"
  },
  {
    "name": "Antalya International Airport",
    "latitude": 36.898701,
    "longitude": 30.800501,
    "iataCode": "AYT",
    "country": "TR",
    "municipality": "Antalya"
  },
  {
    "name": "Richmond International Airport",
    "latitude": 37.50519943237305,
    "longitude": -77.3197021484375,
    "iataCode": "RIC",
    "country": "US",
    "municipality": "Richmond"
  },
  {
    "name": "Il Caravaggio International Airport",
    "latitude": 45.673901,
    "longitude": 9.70417,
    "iataCode": "BGY",
    "country": "IT",
    "municipality": "Bergamo"
  },
  {
    "name": "Birmingham-Shuttlesworth International Airport",
    "latitude": 33.56290054,
    "longitude": -86.75350189,
    "iataCode": "BHM",
    "country": "US",
    "municipality": "Birmingham"
  },
  {
    "name": "Syracuse Hancock International Airport",
    "latitude": 43.11119842529297,
    "longitude": -76.1063003540039,
    "iataCode": "SYR",
    "country": "US",
    "municipality": "Syracuse"
  },
  {
    "name": "Boise Air Terminal/Gowen Field",
    "latitude": 43.5644,
    "longitude": -116.223,
    "iataCode": "BOI",
    "country": "US",
    "municipality": "Boise"
  },
  {
    "name": "Savannah Hilton Head International Airport",
    "latitude": 32.12760162,
    "longitude": -81.20210266,
    "iataCode": "SAV",
    "country": "US",
    "municipality": "Savannah"
  },
  {
    "name": "Phuket International Airport",
    "latitude": 8.1132,
    "longitude": 98.316902,
    "iataCode": "HKT",
    "country": "TH",
    "municipality": "Phuket"
  },
  {
    "name": "Bergen Airport Flesland",
    "latitude": 60.29339981,
    "longitude": 5.218140125,
    "iataCode": "BGO",
    "country": "NO",
    "municipality": "Bergen"
  },
  {
    "name": "Tocumen International Airport",
    "latitude": 9.0713596344,
    "longitude": -79.3834991455,
    "iataCode": "PTY",
    "country": "PA",
    "municipality": "Tocumen"
  },
  {
    "name": "Ontario International Airport",
    "latitude": 34.055999755859375,
    "longitude": -117.60099792480469,
    "iataCode": "ONT",
    "country": "US",
    "municipality": "Ontario"
  },
  {
    "name": "Spokane International Airport",
    "latitude": 47.61989974975586,
    "longitude": -117.53399658203125,
    "iataCode": "GEG",
    "country": "US",
    "municipality": "Spokane"
  },
  {
    "name": "Tan Son Nhat International Airport",
    "latitude": 10.8187999725,
    "longitude": 106.652000427,
    "iataCode": "SGN",
    "country": "VN",
    "municipality": "Ho Chi Minh City"
  },
  {
    "name": "Jomo Kenyatta International Airport",
    "latitude": -1.31923997402,
    "longitude": 36.9277992249,
    "iataCode": "NBO",
    "country": "KE",
    "municipality": "Nairobi"
  },
  {
    "name": "James M Cox Dayton International Airport",
    "latitude": 39.902400970458984,
    "longitude": -84.21939849853516,
    "iataCode": "DAY",
    "country": "US",
    "municipality": "Dayton"
  },
  {
    "name": "Heraklion International Nikos Kazantzakis Airport",
    "latitude": 35.3396987915,
    "longitude": 25.180299758900002,
    "iataCode": "HER",
    "country": "GR",
    "municipality": "Heraklion"
  },
  {
    "name": "Soekarno-Hatta International Airport",
    "latitude": -6.1255698204,
    "longitude": 106.65599823,
    "iataCode": "CGK",
    "country": "ID",
    "municipality": "Jakarta"
  },
  {
    "name": "Tulsa International Airport",
    "latitude": 36.19839859008789,
    "longitude": -95.88809967041016,
    "iataCode": "TUL",
    "country": "US",
    "municipality": "Tulsa"
  },
  {
    "name": "Southwest Florida International Airport",
    "latitude": 26.53619956970215,
    "longitude": -81.75520324707031,
    "iataCode": "RSW",
    "country": "US",
    "municipality": "Fort Myers"
  },
  {
    "name": "Dane County Regional Truax Field",
    "latitude": 43.13990020751953,
    "longitude": -89.3375015258789,
    "iataCode": "MSN",
    "country": "US",
    "municipality": "Madison"
  },
  {
    "name": "Kansai International Airport",
    "latitude": 34.42729949951172,
    "longitude": 135.24400329589844,
    "iataCode": "KIX",
    "country": "JP",
    "municipality": "Osaka"
  },
  {
    "name": "Tenerife South Airport",
    "latitude": 28.044500351,
    "longitude": -16.5725002289,
    "iataCode": "TFS",
    "country": "ES",
    "municipality": "Tenerife Island"
  },
  {
    "name": "Wichita Eisenhower National Airport",
    "latitude": 37.649899,
    "longitude": -97.433098,
    "iataCode": "ICT",
    "country": "US",
    "municipality": "Wichita"
  },
  {
    "name": "Larnaca International Airport",
    "latitude": 34.875099182128906,
    "longitude": 33.624900817871094,
    "iataCode": "LCA",
    "country": "CY",
    "municipality": "Larnarca"
  },
  {
    "name": "Brussels South Charleroi Airport",
    "latitude": 50.459202,
    "longitude": 4.45382,
    "iataCode": "CRL",
    "country": "BE",
    "municipality": "Brussels"
  },
  {
    "name": "Henri Coandă International Airport",
    "latitude": 44.5711111,
    "longitude": 26.085,
    "iataCode": "OTP",
    "country": "RO",
    "municipality": "Bucharest"
  },
  {
    "name": "Greater Rochester International Airport",
    "latitude": 43.118900299072266,
    "longitude": -77.67240142822266,
    "iataCode": "ROC",
    "country": "US",
    "municipality": "Rochester"
  },
  {
    "name": "Hamad International Airport",
    "latitude": 25.273056,
    "longitude": 51.608056,
    "iataCode": "DOH",
    "country": "QA",
    "municipality": "Doha"
  },
  {
    "name": "Domodedovo International Airport",
    "latitude": 55.40879821777344,
    "longitude": 37.90629959106445,
    "iataCode": "DME",
    "country": "RU",
    "municipality": "Moscow"
  },
  {
    "name": "Des Moines International Airport",
    "latitude": 41.534000396728516,
    "longitude": -93.66310119628906,
    "iataCode": "DSM",
    "country": "US",
    "municipality": "Des Moines"
  },
  {
    "name": "Belgrade Nikola Tesla Airport",
    "latitude": 44.8184013367,
    "longitude": 20.3090991974,
    "iataCode": "BEG",
    "country": "RS",
    "municipality": "Belgrade"
  },
  {
    "name": "Gothenburg-Landvetter Airport",
    "latitude": 57.662799835205,
    "longitude": 12.279800415039,
    "iataCode": "GOT",
    "country": "SE",
    "municipality": "Gothenburg"
  },
  {
    "name": "Manchester-Boston Regional Airport",
    "latitude": 42.932598,
    "longitude": -71.435699,
    "iataCode": "MHT",
    "country": "US",
    "municipality": "Manchester"
  },
  {
    "name": "City of Colorado Springs Municipal Airport",
    "latitude": 38.805801,
    "longitude": -104.700996,
    "iataCode": "COS",
    "country": "US",
    "municipality": "Colorado Springs"
  },
  {
    "name": "Portland International Jetport",
    "latitude": 43.646198,
    "longitude": -70.309303,
    "iataCode": "PWM",
    "country": "US",
    "municipality": "Portland"
  },
  {
    "name": "Zagreb Airport",
    "latitude": 45.7429008484,
    "longitude": 16.0687999725,
    "iataCode": "ZAG",
    "country": "HR",
    "municipality": "Zagreb"
  },
  {
    "name": "Marseille Provence Airport",
    "latitude": 43.439271922,
    "longitude": 5.22142410278,
    "iataCode": "MRS",
    "country": "FR",
    "municipality": "Marseille"
  },
  {
    "name": "Francisco de Sá Carneiro Airport",
    "latitude": 41.2481002808,
    "longitude": -8.68138980865,
    "iataCode": "OPO",
    "country": "PT",
    "municipality": "Porto"
  },
  {
    "name": "Christchurch International Airport",
    "latitude": -43.48939895629883,
    "longitude": 172.53199768066406,
    "iataCode": "CHC",
    "country": "NZ",
    "municipality": "Christchurch"
  },
  {
    "name": "Bologna Guglielmo Marconi Airport",
    "latitude": 44.5354,
    "longitude": 11.2887,
    "iataCode": "BLQ",
    "country": "IT",
    "municipality": "Bologna"
  },
  {
    "name": "Kraków John Paul II International Airport",
    "latitude": 50.077702,
    "longitude": 19.7848,
    "iataCode": "KRK",
    "country": "PL",
    "municipality": "Kraków"
  },
  {
    "name": "Bill & Hillary Clinton National Airport/Adams Field",
    "latitude": 34.729400634799994,
    "longitude": -92.2242965698,
    "iataCode": "LIT",
    "country": "US",
    "municipality": "Little Rock"
  },
  {
    "name": "Perth International Airport",
    "latitude": -31.94029998779297,
    "longitude": 115.96700286865234,
    "iataCode": "PER",
    "country": "AU",
    "municipality": "Perth"
  },
  {
    "name": "Alicante International Airport",
    "latitude": 38.28219985961914,
    "longitude": -0.5581560134887695,
    "iataCode": "ALC",
    "country": "ES",
    "municipality": "Alicante"
  },
  {
    "name": "Faro Airport",
    "latitude": 37.0144004822,
    "longitude": -7.96590995789,
    "iataCode": "FAO",
    "country": "PT",
    "municipality": "Faro"
  },
  {
    "name": "Victoria International Airport",
    "latitude": 48.646900177,
    "longitude": -123.426002502,
    "iataCode": "YYJ",
    "country": "CA",
    "municipality": "Victoria"
  },
  {
    "name": "El Dorado International Airport",
    "latitude": 4.70159,
    "longitude": -74.1469,
    "iataCode": "BOG",
    "country": "CO",
    "municipality": "Bogota"
  },
  {
    "name": "Shannon Airport",
    "latitude": 52.702,
    "longitude": -8.92482,
    "iataCode": "SNN",
    "country": "IE",
    "municipality": "Shannon"
  },
  {
    "name": "McGhee Tyson Airport",
    "latitude": 35.81100082,
    "longitude": -83.9940033,
    "iataCode": "TYS",
    "country": "US",
    "municipality": "Knoxville"
  },
  {
    "name": "Pulkovo Airport",
    "latitude": 59.80030059814453,
    "longitude": 30.262500762939453,
    "iataCode": "LED",
    "country": "RU",
    "municipality": "St. Petersburg"
  },
  {
    "name": "Licenciado Gustavo Díaz Ordaz International Airport",
    "latitude": 20.680099487304688,
    "longitude": -105.25399780273438,
    "iataCode": "PVR",
    "country": "MX",
    "municipality": "Puerto Vallarta"
  },
  {
    "name": "Lynden Pindling International Airport",
    "latitude": 25.039,
    "longitude": -77.466202,
    "iataCode": "NAS",
    "country": "BS",
    "municipality": "Nassau"
  },
  {
    "name": "Toulouse-Blagnac Airport",
    "latitude": 43.629101,
    "longitude": 1.36382,
    "iataCode": "TLS",
    "country": "FR",
    "municipality": "Toulouse/Blagnac"
  },
  {
    "name": "Punta Cana International Airport",
    "latitude": 18.567399978599997,
    "longitude": -68.36340332030001,
    "iataCode": "PUJ",
    "country": "DO",
    "municipality": "Punta Cana"
  },
  {
    "name": "Noi Bai International Airport",
    "latitude": 21.221200942993164,
    "longitude": 105.80699920654297,
    "iataCode": "HAN",
    "country": "VN",
    "municipality": "Hanoi"
  },
  {
    "name": "Piedmont Triad International Airport",
    "latitude": 36.097801208496094,
    "longitude": -79.93730163574219,
    "iataCode": "GSO",
    "country": "US",
    "municipality": "Greensboro"
  },
  {
    "name": "Lennart Meri Tallinn Airport",
    "latitude": 59.41329956049999,
    "longitude": 24.832799911499997,
    "iataCode": "TLL",
    "country": "EE",
    "municipality": "Tallinn"
  },
  {
    "name": "EuroAirport Basel-Mulhouse-Freiburg Airport",
    "latitude": 47.59,
    "longitude": 7.529167,
    "iataCode": "BSL",
    "country": "FR",
    "municipality": "Bâle/Mulhouse"
  },
  {
    "name": "Lyon Saint-Exupéry Airport",
    "latitude": 45.725556,
    "longitude": 5.081111,
    "iataCode": "LYS",
    "country": "FR",
    "municipality": "Lyon"
  },
  {
    "name": "Boeing Field King County International Airport",
    "latitude": 47.529998779296875,
    "longitude": -122.302001953125,
    "iataCode": "BFI",
    "country": "US",
    "municipality": "Seattle"
  },
  {
    "name": "Tallahassee Regional Airport",
    "latitude": 30.396499633789062,
    "longitude": -84.35030364990234,
    "iataCode": "TLH",
    "country": "US",
    "municipality": "Tallahassee"
  },
  {
    "name": "Sabiha Gökçen International Airport",
    "latitude": 40.898601532,
    "longitude": 29.3092002869,
    "iataCode": "SAW",
    "country": "TR",
    "municipality": "Istanbul"
  },
  {
    "name": "Blue Grass Airport",
    "latitude": 38.0364990234375,
    "longitude": -84.60590362548828,
    "iataCode": "LEX",
    "country": "US",
    "municipality": "Lexington"
  },
  {
    "name": "Eindhoven Airport",
    "latitude": 51.4500999451,
    "longitude": 5.37452983856,
    "iataCode": "EIN",
    "country": "NL",
    "municipality": "Eindhoven"
  },
  {
    "name": "Naples International Airport",
    "latitude": 40.886002,
    "longitude": 14.2908,
    "iataCode": "NAP",
    "country": "IT",
    "municipality": "Nápoli"
  },
  {
    "name": "José Martí International Airport",
    "latitude": 22.989200592041016,
    "longitude": -82.40910339355469,
    "iataCode": "HAV",
    "country": "CU",
    "municipality": "Havana"
  },
  {
    "name": "Pisa International Airport",
    "latitude": 43.683899,
    "longitude": 10.3927,
    "iataCode": "PSA",
    "country": "IT",
    "municipality": "Pisa"
  },
  {
    "name": "Ljubljana Jože Pučnik Airport",
    "latitude": 46.223701,
    "longitude": 14.4576,
    "iataCode": "LJU",
    "country": "SI",
    "municipality": "Ljubljana"
  },
  {
    "name": "Greenville Spartanburg International Airport",
    "latitude": 34.8956985474,
    "longitude": -82.2189025879,
    "iataCode": "GSP",
    "country": "US",
    "municipality": "Greenville"
  },
  {
    "name": "Stavanger Airport Sola",
    "latitude": 58.876701354,
    "longitude": 5.6377801895,
    "iataCode": "SVG",
    "country": "NO",
    "municipality": "Stavanger"
  },
  {
    "name": "Nuremberg Airport",
    "latitude": 49.498699,
    "longitude": 11.078056,
    "iataCode": "NUE",
    "country": "DE",
    "municipality": "Nuremberg"
  },
  {
    "name": "Liverpool John Lennon Airport",
    "latitude": 53.33359909057617,
    "longitude": -2.849720001220703,
    "iataCode": "LPL",
    "country": "GB",
    "municipality": "Liverpool"
  },
  {
    "name": "Sarasota Bradenton International Airport",
    "latitude": 27.39539909362793,
    "longitude": -82.55439758300781,
    "iataCode": "SRQ",
    "country": "US",
    "municipality": "Sarasota/Bradenton"
  },
  {
    "name": "Shanghai Hongqiao International Airport",
    "latitude": 31.197900772094727,
    "longitude": 121.33599853515625,
    "iataCode": "SHA",
    "country": "CN",
    "municipality": "Shanghai"
  },
  {
    "name": "Bangor International Airport",
    "latitude": 44.80739974975586,
    "longitude": -68.8281021118164,
    "iataCode": "BGR",
    "country": "US",
    "municipality": "Bangor"
  },
  {
    "name": "Lubbock Preston Smith International Airport",
    "latitude": 33.663601,
    "longitude": -101.822998,
    "iataCode": "LBB",
    "country": "US",
    "municipality": "Lubbock"
  },
  {
    "name": "Mohammed V International Airport",
    "latitude": 33.36750030517578,
    "longitude": -7.589970111846924,
    "iataCode": "CMN",
    "country": "MA",
    "municipality": "Casablanca"
  },
  {
    "name": "Bristol Airport",
    "latitude": 51.382702,
    "longitude": -2.71909,
    "iataCode": "BRS",
    "country": "GB",
    "municipality": "Bristol"
  },
  {
    "name": "Bandaranaike International Colombo Airport",
    "latitude": 7.180759906768799,
    "longitude": 79.88410186767578,
    "iataCode": "CMB",
    "country": "LK",
    "municipality": "Colombo"
  },
  {
    "name": "Catania-Fontanarossa Airport",
    "latitude": 37.466801,
    "longitude": 15.0664,
    "iataCode": "CTA",
    "country": "IT",
    "municipality": "Catania"
  },
  {
    "name": "Daytona Beach International Airport",
    "latitude": 29.179899,
    "longitude": -81.058098,
    "iataCode": "DAB",
    "country": "US",
    "municipality": "Daytona Beach"
  },
  {
    "name": "Thessaloniki Macedonia International Airport",
    "latitude": 40.51969909667969,
    "longitude": 22.97089958190918,
    "iataCode": "SKG",
    "country": "GR",
    "municipality": "Thessaloniki"
  },
  {
    "name": "Trondheim Airport Værnes",
    "latitude": 63.4578018,
    "longitude": 10.9239998,
    "iataCode": "TRD",
    "country": "NO",
    "municipality": "Trondheim"
  },
  {
    "name": "Alejandro Velasco Astete International Airport",
    "latitude": -13.535699844400002,
    "longitude": -71.9387969971,
    "iataCode": "CUZ",
    "country": "PE",
    "municipality": "Cusco"
  },
  {
    "name": "Boryspil International Airport",
    "latitude": 50.345001220703125,
    "longitude": 30.894699096679688,
    "iataCode": "KBP",
    "country": "UA",
    "municipality": "Kiev"
  },
  {
    "name": "Tunis Carthage International Airport",
    "latitude": 36.85100173950195,
    "longitude": 10.22719955444336,
    "iataCode": "TUN",
    "country": "TN",
    "municipality": "Tunis"
  },
  {
    "name": "Hannover Airport",
    "latitude": 52.461101532,
    "longitude": 9.685079574580001,
    "iataCode": "HAJ",
    "country": "DE",
    "municipality": "Hannover"
  },
  {
    "name": "Rick Husband Amarillo International Airport",
    "latitude": 35.219398,
    "longitude": -101.706001,
    "iataCode": "AMA",
    "country": "US",
    "municipality": "Amarillo"
  },
  {
    "name": "Chiang Mai International Airport",
    "latitude": 18.766799926799997,
    "longitude": 98.962600708,
    "iataCode": "CNX",
    "country": "TH",
    "municipality": "Chiang Mai"
  },
  {
    "name": "Lovell Field",
    "latitude": 35.035301208496094,
    "longitude": -85.20379638671875,
    "iataCode": "CHA",
    "country": "US",
    "municipality": "Chattanooga"
  },
  {
    "name": "Muscat International Airport",
    "latitude": 23.593299865722656,
    "longitude": 58.284400939941406,
    "iataCode": "MCT",
    "country": "OM",
    "municipality": "Muscat"
  },
  {
    "name": "Newcastle Airport",
    "latitude": 55.037498474121094,
    "longitude": -1.6916699409484863,
    "iataCode": "NCL",
    "country": "GB",
    "municipality": "Newcastle"
  },
  {
    "name": "Vilnius International Airport",
    "latitude": 54.634102,
    "longitude": 25.285801,
    "iataCode": "VNO",
    "country": "LT",
    "municipality": "Vilnius"
  },
  {
    "name": "Sofia Airport",
    "latitude": 42.696693420410156,
    "longitude": 23.411436080932617,
    "iataCode": "SOF",
    "country": "BG",
    "municipality": "Sofia"
  },
  {
    "name": "Columbia Metropolitan Airport",
    "latitude": 33.93880081176758,
    "longitude": -81.11949920654297,
    "iataCode": "CAE",
    "country": "US",
    "municipality": "Columbia"
  },
  {
    "name": "Austin Straubel International Airport",
    "latitude": 44.48509979248047,
    "longitude": -88.12960052490234,
    "iataCode": "GRB",
    "country": "US",
    "municipality": "Green Bay"
  },
  {
    "name": "Guangzhou Baiyun International Airport",
    "latitude": 23.39240074157715,
    "longitude": 113.29900360107422,
    "iataCode": "CAN",
    "country": "CN",
    "municipality": "Guangzhou"
  },
  {
    "name": "Chennai International Airport",
    "latitude": 12.990005493164062,
    "longitude": 80.16929626464844,
    "iataCode": "MAA",
    "country": "IN",
    "municipality": "Chennai"
  },
  {
    "name": "Bordeaux-Mérignac Airport",
    "latitude": 44.828300476100004,
    "longitude": -0.715556025505,
    "iataCode": "BOD",
    "country": "FR",
    "municipality": "Bordeaux/Mérignac"
  },
  {
    "name": "Luxembourg-Findel International Airport",
    "latitude": 49.6233333,
    "longitude": 6.2044444,
    "iataCode": "LUX",
    "country": "LU",
    "municipality": "Luxembourg"
  },
  {
    "name": "Kempegowda International Airport",
    "latitude": 13.1979,
    "longitude": 77.706299,
    "iataCode": "BLR",
    "country": "IN",
    "municipality": "Bangalore"
  },
  {
    "name": "Congonhas Airport",
    "latitude": -23.626110076904297,
    "longitude": -46.65638732910156,
    "iataCode": "CGH",
    "country": "BR",
    "municipality": "São Paulo"
  },
  {
    "name": "Queen Alia International Airport",
    "latitude": 31.7226009369,
    "longitude": 35.9931983948,
    "iataCode": "AMM",
    "country": "JO",
    "municipality": "Amman"
  },
  {
    "name": "South Bend Regional Airport",
    "latitude": 41.70869827270508,
    "longitude": -86.31729888916016,
    "iataCode": "SBN",
    "country": "US",
    "municipality": "South Bend"
  },
  {
    "name": "Asheville Regional Airport",
    "latitude": 35.43619918823242,
    "longitude": -82.54180145263672,
    "iataCode": "AVL",
    "country": "US",
    "municipality": "Asheville"
  },
  {
    "name": "M. R. Štefánik Airport",
    "latitude": 48.17020034790039,
    "longitude": 17.21269989013672,
    "iataCode": "BTS",
    "country": "SK",
    "municipality": "Bratislava"
  },
  {
    "name": "East Midlands Airport",
    "latitude": 52.8311004639,
    "longitude": -1.32806003094,
    "iataCode": "EMA",
    "country": "GB",
    "municipality": "Nottingham"
  },
  {
    "name": "Orlando Sanford International Airport",
    "latitude": 28.777599334716797,
    "longitude": -81.23750305175781,
    "iataCode": "SFB",
    "country": "US",
    "municipality": "Orlando"
  },
  {
    "name": "Los Cabos International Airport",
    "latitude": 23.15180015563965,
    "longitude": -109.72100067138672,
    "iataCode": "SJD",
    "country": "MX",
    "municipality": "San José del Cabo"
  },
  {
    "name": "Gimpo International Airport",
    "latitude": 37.5583,
    "longitude": 126.791,
    "iataCode": "GMP",
    "country": "KR",
    "municipality": "Seoul"
  },
  {
    "name": "Leeds Bradford Airport",
    "latitude": 53.86589813232422,
    "longitude": -1.6605700254440308,
    "iataCode": "LBA",
    "country": "GB",
    "municipality": "Leeds"
  },
  {
    "name": "Hurghada International Airport",
    "latitude": 27.178300857543945,
    "longitude": 33.799400329589844,
    "iataCode": "HRG",
    "country": "EG",
    "municipality": "Hurghada"
  },
  {
    "name": "Huntsville International Carl T Jones Field",
    "latitude": 34.637199401855,
    "longitude": -86.775100708008,
    "iataCode": "HSV",
    "country": "US",
    "municipality": "Huntsville"
  },
  {
    "name": "The Eastern Iowa Airport",
    "latitude": 41.884700775146484,
    "longitude": -91.71080017089844,
    "iataCode": "CID",
    "country": "US",
    "municipality": "Cedar Rapids"
  },
  {
    "name": "Springfield Branson National Airport",
    "latitude": 37.24570084,
    "longitude": -93.38860321,
    "iataCode": "SGF",
    "country": "US",
    "municipality": "Springfield"
  },
  {
    "name": "Treviso-Sant'Angelo Airport",
    "latitude": 45.648399,
    "longitude": 12.1944,
    "iataCode": "TSF",
    "country": "IT",
    "municipality": "Treviso"
  },
  {
    "name": "Billings Logan International Airport",
    "latitude": 45.807701110839844,
    "longitude": -108.54299926757812,
    "iataCode": "BIL",
    "country": "US",
    "municipality": "Billings"
  },
  {
    "name": "Billund Airport",
    "latitude": 55.7402992249,
    "longitude": 9.15178012848,
    "iataCode": "BLL",
    "country": "DK",
    "municipality": "Billund"
  },
  {
    "name": "Bahrain International Airport",
    "latitude": 26.27079963684082,
    "longitude": 50.63359832763672,
    "iataCode": "BAH",
    "country": "BH",
    "municipality": "Manama"
  },
  {
    "name": "Siem Reap International Airport",
    "latitude": 13.410699844400002,
    "longitude": 103.81300354,
    "iataCode": "REP",
    "country": "KH",
    "municipality": "Siem Reap"
  },
  {
    "name": "Adelaide International Airport",
    "latitude": -34.945,
    "longitude": 138.531006,
    "iataCode": "ADL",
    "country": "AU",
    "municipality": "Adelaide"
  },
  {
    "name": "Belfast International Airport",
    "latitude": 54.6575012207,
    "longitude": -6.2158298492399995,
    "iataCode": "BFS",
    "country": "GB",
    "municipality": "Belfast"
  },
  {
    "name": "Adnan Menderes International Airport",
    "latitude": 38.2924003601,
    "longitude": 27.156999588,
    "iataCode": "ADB",
    "country": "TR",
    "municipality": "İzmir"
  },
  {
    "name": "Malmö Sturup Airport",
    "latitude": 55.536305364,
    "longitude": 13.376197814900001,
    "iataCode": "MMX",
    "country": "SE",
    "municipality": "Malmö"
  },
  {
    "name": "Las Américas International Airport",
    "latitude": 18.42970085144,
    "longitude": -69.668899536133,
    "iataCode": "SDQ",
    "country": "DO",
    "municipality": "Santo Domingo"
  },
  {
    "name": "Princess Juliana International Airport",
    "latitude": 18.041000366200002,
    "longitude": -63.1088981628,
    "iataCode": "SXM",
    "country": "SX",
    "municipality": "Saint Martin"
  },
  {
    "name": "Bremen Airport",
    "latitude": 53.0475006104,
    "longitude": 8.78666973114,
    "iataCode": "BRE",
    "country": "DE",
    "municipality": "Bremen"
  },
  {
    "name": "Turin Airport",
    "latitude": 45.200802,
    "longitude": 7.64963,
    "iataCode": "TRN",
    "country": "IT",
    "municipality": "Torino"
  },
  {
    "name": "St. John's International Airport",
    "latitude": 47.618598938,
    "longitude": -52.7518997192,
    "iataCode": "YYT",
    "country": "CA",
    "municipality": "St. John's"
  },
  {
    "name": "King Abdulaziz International Airport",
    "latitude": 21.6796,
    "longitude": 39.156502,
    "iataCode": "JED",
    "country": "SA",
    "municipality": "Jeddah"
  },
  {
    "name": "Kuwait International Airport",
    "latitude": 29.226600646972656,
    "longitude": 47.96889877319336,
    "iataCode": "KWI",
    "country": "KW",
    "municipality": "Kuwait City"
  },
  {
    "name": "Aberdeen Dyce Airport",
    "latitude": 57.201900482177734,
    "longitude": -2.197779893875122,
    "iataCode": "ABZ",
    "country": "GB",
    "municipality": "Aberdeen"
  },
  {
    "name": "Mobile Regional Airport",
    "latitude": 30.691200256348,
    "longitude": -88.242797851562,
    "iataCode": "MOB",
    "country": "US",
    "municipality": "Mobile"
  },
  {
    "name": "Verona Villafranca Airport",
    "latitude": 45.395699,
    "longitude": 10.8885,
    "iataCode": "VRN",
    "country": "IT",
    "municipality": "Verona"
  },
  {
    "name": "Fort Wayne International Airport",
    "latitude": 40.97850037,
    "longitude": -85.19509888,
    "iataCode": "FWA",
    "country": "US",
    "municipality": "Fort Wayne"
  },
  {
    "name": "Don Miguel Hidalgo Y Costilla International Airport",
    "latitude": 20.521799087524414,
    "longitude": -103.31099700927734,
    "iataCode": "GDL",
    "country": "MX",
    "municipality": "Guadalajara"
  },
  {
    "name": "Falcone–Borsellino Airport",
    "latitude": 38.175999,
    "longitude": 13.091,
    "iataCode": "PMO",
    "country": "IT",
    "municipality": "Palermo"
  },
  {
    "name": "Léopold Sédar Senghor International Airport",
    "latitude": 14.739700317382812,
    "longitude": -17.49020004272461,
    "iataCode": "DKR",
    "country": "SN",
    "municipality": "Dakar"
  },
  {
    "name": "Malé International Airport",
    "latitude": 4.191830158233643,
    "longitude": 73.52909851074219,
    "iataCode": "MLE",
    "country": "MV",
    "municipality": "Malé"
  },
  {
    "name": "Fairbanks International Airport",
    "latitude": 64.81510162,
    "longitude": -147.8560028,
    "iataCode": "FAI",
    "country": "US",
    "municipality": "Fairbanks"
  },
  {
    "name": "Duluth International Airport",
    "latitude": 46.8420982361,
    "longitude": -92.19360351559999,
    "iataCode": "DLH",
    "country": "US",
    "municipality": "Duluth"
  },
  {
    "name": "Addis Ababa Bole International Airport",
    "latitude": 8.97789001465,
    "longitude": 38.799301147499996,
    "iataCode": "ADD",
    "country": "ET",
    "municipality": "Addis Ababa"
  },
  {
    "name": "Tribhuvan International Airport",
    "latitude": 27.6966,
    "longitude": 85.3591,
    "iataCode": "KTM",
    "country": "NP",
    "municipality": "Kathmandu"
  },
  {
    "name": "Mactan Cebu International Airport",
    "latitude": 10.307499885559,
    "longitude": 123.97899627686,
    "iataCode": "CEB",
    "country": "PH",
    "municipality": "Lapu-Lapu City"
  },
  {
    "name": "Rochester International Airport",
    "latitude": 43.90829849243164,
    "longitude": -92.5,
    "iataCode": "RST",
    "country": "US",
    "municipality": "Rochester"
  },
  {
    "name": "Wellington International Airport",
    "latitude": -41.3272018433,
    "longitude": 174.804992676,
    "iataCode": "WLG",
    "country": "NZ",
    "municipality": "Wellington"
  },
  {
    "name": "Gdańsk Lech Wałęsa Airport",
    "latitude": 54.377601623535156,
    "longitude": 18.46619987487793,
    "iataCode": "GDN",
    "country": "PL",
    "municipality": "Gdańsk"
  },
  {
    "name": "Southampton Airport",
    "latitude": 50.95029830932617,
    "longitude": -1.3567999601364136,
    "iataCode": "SOU",
    "country": "GB",
    "municipality": "Southampton"
  },
  {
    "name": "Jackson-Medgar Wiley Evers International Airport",
    "latitude": 32.3111991882,
    "longitude": -90.0758972168,
    "iataCode": "JAN",
    "country": "US",
    "municipality": "Jackson"
  },
  {
    "name": "Beirut Rafic Hariri International Airport",
    "latitude": 33.820899963378906,
    "longitude": 35.488399505615234,
    "iataCode": "BEY",
    "country": "LB",
    "municipality": "Beirut"
  },
  {
    "name": "Xi'an Xianyang International Airport",
    "latitude": 34.447102,
    "longitude": 108.751999,
    "iataCode": "XIY",
    "country": "CN",
    "municipality": "Xi'an"
  },
  {
    "name": "Esenboğa International Airport",
    "latitude": 40.128101348899996,
    "longitude": 32.995098114,
    "iataCode": "ESB",
    "country": "TR",
    "municipality": "Ankara"
  },
  {
    "name": "Roanoke–Blacksburg Regional Airport",
    "latitude": 37.3255,
    "longitude": -79.975403,
    "iataCode": "ROA",
    "country": "US",
    "municipality": "Roanoke"
  },
  {
    "name": "Tromsø Airport",
    "latitude": 69.68329620361328,
    "longitude": 18.918899536132812,
    "iataCode": "TOS",
    "country": "NO",
    "municipality": "Tromsø"
  },
  {
    "name": "Simón Bolívar International Airport",
    "latitude": 10.601194,
    "longitude": -66.991222,
    "iataCode": "CCS",
    "country": "VE",
    "municipality": "Caracas"
  },
  {
    "name": "Osaka International Airport",
    "latitude": 34.785499572753906,
    "longitude": 135.43800354003906,
    "iataCode": "ITM",
    "country": "JP",
    "municipality": "Osaka"
  },
  {
    "name": "Yeager Airport",
    "latitude": 38.37310028076172,
    "longitude": -81.59320068359375,
    "iataCode": "CRW",
    "country": "US",
    "municipality": "Charleston"
  },
  {
    "name": "La Aurora Airport",
    "latitude": 14.5833,
    "longitude": -90.527496,
    "iataCode": "GUA",
    "country": "GT",
    "municipality": "Guatemala City"
  },
  {
    "name": "Presidente Juscelino Kubistschek International Airport",
    "latitude": -15.86916732788086,
    "longitude": -47.920833587646484,
    "iataCode": "BSB",
    "country": "BR",
    "municipality": "Brasília"
  },
  {
    "name": "Phnom Penh International Airport",
    "latitude": 11.546600341796875,
    "longitude": 104.84400177001953,
    "iataCode": "PNH",
    "country": "KH",
    "municipality": "Phnom Penh"
  },
  {
    "name": "Corpus Christi International Airport",
    "latitude": 27.77039909362793,
    "longitude": -97.5011978149414,
    "iataCode": "CRP",
    "country": "US",
    "municipality": "Corpus Christi"
  },
  {
    "name": "Canberra International Airport",
    "latitude": -35.30690002441406,
    "longitude": 149.19500732421875,
    "iataCode": "CBR",
    "country": "AU",
    "municipality": "Canberra"
  },
  {
    "name": "General Mariano Escobedo International Airport",
    "latitude": 25.7784996033,
    "longitude": -100.107002258,
    "iataCode": "MTY",
    "country": "MX",
    "municipality": "Monterrey"
  },
  {
    "name": "Cork Airport",
    "latitude": 51.84130096435547,
    "longitude": -8.491109848022461,
    "iataCode": "ORK",
    "country": "IE",
    "municipality": "Cork"
  },
  {
    "name": "Gulfport Biloxi International Airport",
    "latitude": 30.40730094909668,
    "longitude": -89.07009887695312,
    "iataCode": "GPT",
    "country": "US",
    "municipality": "Gulfport"
  },
  {
    "name": "George Best Belfast City Airport",
    "latitude": 54.618099212646484,
    "longitude": -5.872499942779541,
    "iataCode": "BHD",
    "country": "GB",
    "municipality": "Belfast"
  },
  {
    "name": "Dabolim Airport",
    "latitude": 15.3808002472,
    "longitude": 73.8313980103,
    "iataCode": "GOI",
    "country": "IN",
    "municipality": "Vasco da Gama"
  },
  {
    "name": "Fort Worth Meacham International Airport",
    "latitude": 32.819801,
    "longitude": -97.362396,
    "iataCode": "FTW",
    "country": "US",
    "municipality": "Fort Worth"
  },
  {
    "name": "Cagliari Elmas Airport",
    "latitude": 39.251499,
    "longitude": 9.05428,
    "iataCode": "CAG",
    "country": "IT",
    "municipality": "Cagliari"
  },
  {
    "name": "Vnukovo International Airport",
    "latitude": 55.5914993286,
    "longitude": 37.2615013123,
    "iataCode": "VKO",
    "country": "RU",
    "municipality": "Moscow"
  },
  {
    "name": "Mariscal Sucre International Airport",
    "latitude": -0.129166666667,
    "longitude": -78.3575,
    "iataCode": "UIO",
    "country": "EC",
    "municipality": "Quito"
  },
  {
    "name": "Bodø Airport",
    "latitude": 67.26920318603516,
    "longitude": 14.365300178527832,
    "iataCode": "BOO",
    "country": "NO",
    "municipality": "Bodø"
  },
  {
    "name": "Carrasco International /General C L Berisso Airport",
    "latitude": -34.838402,
    "longitude": -56.0308,
    "iataCode": "MVD",
    "country": "UY",
    "municipality": "Montevideo"
  },
  {
    "name": "Newport News Williamsburg International Airport",
    "latitude": 37.13190079,
    "longitude": -76.49299622,
    "iataCode": "PHF",
    "country": "US",
    "municipality": "Newport News"
  },
  {
    "name": "Toledo Express Airport",
    "latitude": 41.58679962,
    "longitude": -83.80780029,
    "iataCode": "TOL",
    "country": "US",
    "municipality": "Toledo"
  },
  {
    "name": "Milas Bodrum International Airport",
    "latitude": 37.25059890749999,
    "longitude": 27.6643009186,
    "iataCode": "BJV",
    "country": "TR",
    "municipality": "Bodrum"
  },
  {
    "name": "Sarajevo International Airport",
    "latitude": 43.82460021972656,
    "longitude": 18.331499099731445,
    "iataCode": "SJJ",
    "country": "BA",
    "municipality": "Sarajevo"
  },
  {
    "name": "Juan Gualberto Gomez International Airport",
    "latitude": 23.034400939941406,
    "longitude": -81.435302734375,
    "iataCode": "VRA",
    "country": "CU",
    "municipality": "Varadero"
  },
  {
    "name": "Kotoka International Airport",
    "latitude": 5.605189800262451,
    "longitude": -0.16678600013256073,
    "iataCode": "ACC",
    "country": "GH",
    "municipality": "Accra"
  },
  {
    "name": "Tenerife Norte Airport",
    "latitude": 28.4827003479,
    "longitude": -16.3414993286,
    "iataCode": "TFN",
    "country": "ES",
    "municipality": "Tenerife Island"
  },
  {
    "name": "Augusta Regional At Bush Field",
    "latitude": 33.36989974975586,
    "longitude": -81.9645004272461,
    "iataCode": "AGS",
    "country": "US",
    "municipality": "Augusta"
  },
  {
    "name": "Central Illinois Regional Airport at Bloomington-Normal",
    "latitude": 40.47710037,
    "longitude": -88.91590118,
    "iataCode": "BMI",
    "country": "US",
    "municipality": "Bloomington/Normal"
  },
  {
    "name": "Murtala Muhammed International Airport",
    "latitude": 6.5773701667785645,
    "longitude": 3.321160078048706,
    "iataCode": "LOS",
    "country": "NG",
    "municipality": "Lagos"
  },
  {
    "name": "Quad City International Airport",
    "latitude": 41.44850158691406,
    "longitude": -90.50749969482422,
    "iataCode": "MLI",
    "country": "US",
    "municipality": "Moline"
  },
  {
    "name": "Shenzhen Bao'an International Airport",
    "latitude": 22.639299392700195,
    "longitude": 113.81099700927734,
    "iataCode": "SZX",
    "country": "CN",
    "municipality": "Shenzhen"
  },
  {
    "name": "Chengdu Shuangliu International Airport",
    "latitude": 30.578500747680664,
    "longitude": 103.9469985961914,
    "iataCode": "CTU",
    "country": "CN",
    "municipality": "Chengdu"
  },
  {
    "name": "General Wayne A. Downing Peoria International Airport",
    "latitude": 40.664199829100006,
    "longitude": -89.6932983398,
    "iataCode": "PIA",
    "country": "US",
    "municipality": "Peoria"
  },
  {
    "name": "Cardiff International Airport",
    "latitude": 51.39670181274414,
    "longitude": -3.343329906463623,
    "iataCode": "CWL",
    "country": "GB",
    "municipality": "Cardiff"
  },
  {
    "name": "Montgomery Regional (Dannelly Field) Airport",
    "latitude": 32.30059814,
    "longitude": -86.39399719,
    "iataCode": "MGM",
    "country": "US",
    "municipality": "Montgomery"
  },
  {
    "name": "Santiago de Compostela Airport",
    "latitude": 42.89630126953125,
    "longitude": -8.415140151977539,
    "iataCode": "SCQ",
    "country": "ES",
    "municipality": "Santiago de Compostela"
  },
  {
    "name": "Hazrat Shahjalal International Airport",
    "latitude": 23.843347,
    "longitude": 90.397783,
    "iataCode": "DAC",
    "country": "BD",
    "municipality": "Dhaka"
  },
  {
    "name": "Entebbe International Airport",
    "latitude": 0.042386,
    "longitude": 32.443501,
    "iataCode": "EBB",
    "country": "UG",
    "municipality": "Kampala"
  },
  {
    "name": "Dalaman International Airport",
    "latitude": 36.7131004333,
    "longitude": 28.7924995422,
    "iataCode": "DLM",
    "country": "TR",
    "municipality": "Dalaman"
  },
  {
    "name": "Istanbul Airport",
    "latitude": 41.275278,
    "longitude": 28.751944,
    "iataCode": "IST",
    "country": "TR",
    "municipality": "Istanbul"
  },
  {
    "name": "Owen Roberts International Airport",
    "latitude": 19.292800903299998,
    "longitude": -81.3576965332,
    "iataCode": "GCM",
    "country": "KY",
    "municipality": "Georgetown"
  },
  {
    "name": "Da Nang International Airport",
    "latitude": 16.043899536132812,
    "longitude": 108.1989974975586,
    "iataCode": "DAD",
    "country": "VN",
    "municipality": "Da Nang"
  },
  {
    "name": "Exeter International Airport",
    "latitude": 50.73440170288086,
    "longitude": -3.4138898849487305,
    "iataCode": "EXT",
    "country": "GB",
    "municipality": "Exeter"
  },
  {
    "name": "Norman Manley International Airport",
    "latitude": 17.935699462890625,
    "longitude": -76.7874984741211,
    "iataCode": "KIN",
    "country": "JM",
    "municipality": "Kingston"
  },
  {
    "name": "Fukuoka Airport",
    "latitude": 33.585899353027344,
    "longitude": 130.4510040283203,
    "iataCode": "FUK",
    "country": "JP",
    "municipality": "Fukuoka"
  },
  {
    "name": "Tri-Cities Regional TN/VA Airport",
    "latitude": 36.475201,
    "longitude": -82.407401,
    "iataCode": "TRI",
    "country": "US",
    "municipality": "Bristol/Johnson/Kingsport"
  },
  {
    "name": "Chicago Rockford International Airport",
    "latitude": 42.19540023803711,
    "longitude": -89.09719848632812,
    "iataCode": "RFD",
    "country": "US",
    "municipality": "Chicago/Rockford"
  },
  {
    "name": "Kunming Changshui International Airport",
    "latitude": 25.1019444,
    "longitude": 102.9291667,
    "iataCode": "KMG",
    "country": "CN",
    "municipality": "Kunming"
  },
  {
    "name": "Dresden Airport",
    "latitude": 51.1328010559082,
    "longitude": 13.767200469970703,
    "iataCode": "DRS",
    "country": "DE",
    "municipality": "Dresden"
  },
  {
    "name": "Netaji Subhash Chandra Bose International Airport",
    "latitude": 22.654699325561523,
    "longitude": 88.44670104980469,
    "iataCode": "CCU",
    "country": "IN",
    "municipality": "Kolkata"
  },
  {
    "name": "Luxor International Airport",
    "latitude": 25.671,
    "longitude": 32.7066,
    "iataCode": "LXR",
    "country": "EG",
    "municipality": "Luxor"
  },
  {
    "name": "Cochin International Airport",
    "latitude": 10.152,
    "longitude": 76.401901,
    "iataCode": "COK",
    "country": "IN",
    "municipality": "Kochi"
  },
  {
    "name": "Fort Smith Regional Airport",
    "latitude": 35.33660125732422,
    "longitude": -94.36740112304688,
    "iataCode": "FSM",
    "country": "US",
    "municipality": "Fort Smith"
  },
  {
    "name": "Macau International Airport",
    "latitude": 22.149599,
    "longitude": 113.592003,
    "iataCode": "MFM",
    "country": "MO",
    "municipality": "Macau"
  },
  {
    "name": "Genoa Cristoforo Colombo Airport",
    "latitude": 44.4133,
    "longitude": 8.8375,
    "iataCode": "GOA",
    "country": "IT",
    "municipality": "Genova"
  },
  {
    "name": "King Khaled International Airport",
    "latitude": 24.957599639892578,
    "longitude": 46.69879913330078,
    "iataCode": "RUH",
    "country": "SA",
    "municipality": "Riyadh"
  },
  {
    "name": "Dortmund Airport",
    "latitude": 51.51829910279999,
    "longitude": 7.61223983765,
    "iataCode": "DTM",
    "country": "DE",
    "municipality": "Dortmund"
  },
  {
    "name": "Mombasa Moi International Airport",
    "latitude": -4.034830093383789,
    "longitude": 39.594200134277344,
    "iataCode": "MBA",
    "country": "KE",
    "municipality": "Mombasa"
  },
  {
    "name": "Monseñor Óscar Arnulfo Romero International Airport",
    "latitude": 13.4409,
    "longitude": -89.055702,
    "iataCode": "SAL",
    "country": "SV",
    "municipality": "San Salvador (San Luis Talpa)"
  },
  {
    "name": "Bari Karol Wojtyła Airport",
    "latitude": 41.138901,
    "longitude": 16.760599,
    "iataCode": "BRI",
    "country": "IT",
    "municipality": "Bari"
  },
  {
    "name": "Tbilisi International Airport",
    "latitude": 41.6692008972,
    "longitude": 44.95470047,
    "iataCode": "TBS",
    "country": "GE",
    "municipality": "Tbilisi"
  },
  {
    "name": "Leipzig/Halle Airport",
    "latitude": 51.423889,
    "longitude": 12.236389,
    "iataCode": "LEJ",
    "country": "DE",
    "municipality": "Leipzig"
  },
  {
    "name": "Imam Khomeini International Airport",
    "latitude": 35.416099548339844,
    "longitude": 51.152198791503906,
    "iataCode": "IKA",
    "country": "IR",
    "municipality": "Tehran"
  },
  {
    "name": "Burgas Airport",
    "latitude": 42.56959915161133,
    "longitude": 27.515199661254883,
    "iataCode": "BOJ",
    "country": "BG",
    "municipality": "Burgas"
  },
  {
    "name": "Deputado Luiz Eduardo Magalhães International Airport",
    "latitude": -12.9086112976,
    "longitude": -38.3224983215,
    "iataCode": "SSA",
    "country": "BR",
    "municipality": "Salvador"
  },
  {
    "name": "Skopje International Airport",
    "latitude": 41.961601,
    "longitude": 21.621401,
    "iataCode": "SKP",
    "country": "MK",
    "municipality": "Skopje"
  },
  {
    "name": "Yangon International Airport",
    "latitude": 16.907300949099998,
    "longitude": 96.1332015991,
    "iataCode": "RGN",
    "country": "MM",
    "municipality": "Yangon"
  },
  {
    "name": "Abeid Amani Karume International Airport",
    "latitude": -6.22202,
    "longitude": 39.224899,
    "iataCode": "ZNZ",
    "country": "TZ",
    "municipality": "Zanzibar"
  },
  {
    "name": "New Chitose Airport",
    "latitude": 42.77519989013672,
    "longitude": 141.69200134277344,
    "iataCode": "CTS",
    "country": "JP",
    "municipality": "Chitose / Tomakomai"
  },
  {
    "name": "Julius Nyerere International Airport",
    "latitude": -6.87811,
    "longitude": 39.202599,
    "iataCode": "DAR",
    "country": "TZ",
    "municipality": "Dar es Salaam"
  },
  {
    "name": "Seychelles International Airport",
    "latitude": -4.67434,
    "longitude": 55.521801,
    "iataCode": "SEZ",
    "country": "SC",
    "municipality": "Mahe Island"
  },
  {
    "name": "Paphos International Airport",
    "latitude": 34.71799850463867,
    "longitude": 32.48569869995117,
    "iataCode": "PFO",
    "country": "CY",
    "municipality": "Paphos"
  },
  {
    "name": "Heydar Aliyev International Airport",
    "latitude": 40.467498779296875,
    "longitude": 50.04669952392578,
    "iataCode": "GYD",
    "country": "AZ",
    "municipality": "Baku"
  },
  {
    "name": "General Juan N Alvarez International Airport",
    "latitude": 16.757099151611328,
    "longitude": -99.75399780273438,
    "iataCode": "ACA",
    "country": "MX",
    "municipality": "Acapulco"
  },
  {
    "name": "Almaty Airport",
    "latitude": 43.35210037231445,
    "longitude": 77.04049682617188,
    "iataCode": "ALA",
    "country": "KZ",
    "municipality": "Almaty"
  },
  {
    "name": "Diosdado Macapagal International Airport",
    "latitude": 15.186,
    "longitude": 120.559998,
    "iataCode": "CRK",
    "country": "PH",
    "municipality": "Angeles/Mabalacat"
  },
  {
    "name": "Destin-Ft Walton Beach Airport",
    "latitude": 30.4832,
    "longitude": -86.525398,
    "iataCode": "VPS",
    "country": "US",
    "municipality": "Valparaiso"
  },
  {
    "name": "Hosea Kutako International Airport",
    "latitude": -22.4799,
    "longitude": 17.4709,
    "iataCode": "WDH",
    "country": "NA",
    "municipality": "Windhoek"
  },
  {
    "name": "Sir Seewoosagur Ramgoolam International Airport",
    "latitude": -20.430201,
    "longitude": 57.683601,
    "iataCode": "MRU",
    "country": "MU",
    "municipality": "Port Louis"
  },
  {
    "name": "Khartoum International Airport",
    "latitude": 15.589500427246094,
    "longitude": 32.553199768066406,
    "iataCode": "KRT",
    "country": "SD",
    "municipality": "Khartoum"
  },
  {
    "name": "Daniel Oduber Quiros International Airport",
    "latitude": 10.5933,
    "longitude": -85.544403,
    "iataCode": "LIR",
    "country": "CR",
    "municipality": "Liberia"
  },
  {
    "name": "Spirit of St Louis Airport",
    "latitude": 38.662101745605,
    "longitude": -90.652000427246,
    "iataCode": "SUS",
    "country": "US",
    "municipality": "St Louis"
  },
  {
    "name": "Abraham Lincoln Capital Airport",
    "latitude": 39.84410095,
    "longitude": -89.67790222,
    "iataCode": "SPI",
    "country": "US",
    "municipality": "Springfield"
  },
  {
    "name": "Houari Boumediene Airport",
    "latitude": 36.691001892089844,
    "longitude": 3.215409994125366,
    "iataCode": "ALG",
    "country": "DZ",
    "municipality": "Algiers"
  },
  {
    "name": "Rajiv Gandhi International Airport",
    "latitude": 17.2313175201,
    "longitude": 78.4298553467,
    "iataCode": "HYD",
    "country": "IN",
    "municipality": "Hyderabad"
  },
  {
    "name": "Minsk National Airport",
    "latitude": 53.882499694824,
    "longitude": 28.030700683594,
    "iataCode": "MSQ",
    "country": "BY",
    "municipality": "Minsk"
  },
  {
    "name": "Antonio B. Won Pat International Airport",
    "latitude": 13.4834003448,
    "longitude": 144.796005249,
    "iataCode": "GUM",
    "country": "GU",
    "municipality": "Hagåtña, Guam International Airport"
  },
  {
    "name": "Poznań-Ławica Airport",
    "latitude": 52.421001434299995,
    "longitude": 16.8262996674,
    "iataCode": "POZ",
    "country": "PL",
    "municipality": "Poznań"
  },
  {
    "name": "Katowice International Airport",
    "latitude": 50.4743,
    "longitude": 19.08,
    "iataCode": "KTW",
    "country": "PL",
    "municipality": "Katowice"
  },
  {
    "name": "Philip S. W. Goldson International Airport",
    "latitude": 17.539100646972656,
    "longitude": -88.30819702148438,
    "iataCode": "BZE",
    "country": "BZ",
    "municipality": "Belize City"
  },
  {
    "name": "Rickenbacker International Airport",
    "latitude": 39.813801,
    "longitude": -82.927803,
    "iataCode": "LCK",
    "country": "US",
    "municipality": "Columbus"
  },
  {
    "name": "Naha Airport",
    "latitude": 26.1958007812,
    "longitude": 127.646003723,
    "iataCode": "OKA",
    "country": "JP",
    "municipality": "Naha"
  },
  {
    "name": "Juanda International Airport",
    "latitude": -7.3798298835754395,
    "longitude": 112.78700256347656,
    "iataCode": "SUB",
    "country": "ID",
    "municipality": "Surabaya"
  },
  {
    "name": "Sheppard Air Force Base-Wichita Falls Municipal Airport",
    "latitude": 33.9888,
    "longitude": -98.491898,
    "iataCode": "SPS",
    "country": "US",
    "municipality": "Wichita Falls"
  },
  {
    "name": "Aalborg Airport",
    "latitude": 57.0927589138,
    "longitude": 9.84924316406,
    "iataCode": "AAL",
    "country": "DK",
    "municipality": "Aalborg"
  },
  {
    "name": "Gimhae International Airport",
    "latitude": 35.1795005798,
    "longitude": 128.93800354,
    "iataCode": "PUS",
    "country": "KR",
    "municipality": "Busan"
  },
  {
    "name": "Erie International Tom Ridge Field",
    "latitude": 42.0831270134,
    "longitude": -80.1738667488,
    "iataCode": "ERI",
    "country": "US",
    "municipality": "Erie"
  },
  {
    "name": "Monroe Regional Airport",
    "latitude": 32.51089859008789,
    "longitude": -92.0376968383789,
    "iataCode": "MLU",
    "country": "US",
    "municipality": "Monroe"
  },
  {
    "name": "Sioux Gateway Airport/Brigadier General Bud Day Field",
    "latitude": 42.402599,
    "longitude": -96.384399,
    "iataCode": "SUX",
    "country": "US",
    "municipality": "Sioux City"
  },
  {
    "name": "General Abelardo L. Rodríguez International Airport",
    "latitude": 32.541099548339844,
    "longitude": -116.97000122070312,
    "iataCode": "TIJ",
    "country": "MX",
    "municipality": "Tijuana"
  },
  {
    "name": "Bournemouth Airport",
    "latitude": 50.779998779296875,
    "longitude": -1.8424999713897705,
    "iataCode": "BOH",
    "country": "GB",
    "municipality": "Bournemouth"
  },
  {
    "name": "Brunei International Airport",
    "latitude": 4.944200038909912,
    "longitude": 114.9280014038086,
    "iataCode": "BWN",
    "country": "BN",
    "municipality": "Bandar Seri Begawan"
  },
  {
    "name": "MBS International Airport",
    "latitude": 43.532901763916016,
    "longitude": -84.07959747314453,
    "iataCode": "MBS",
    "country": "US",
    "municipality": "Saginaw"
  },
  {
    "name": "Afonso Pena Airport",
    "latitude": -25.5284996033,
    "longitude": -49.1758003235,
    "iataCode": "CWB",
    "country": "BR",
    "municipality": "Curitiba"
  },
  {
    "name": "Faa'a International Airport",
    "latitude": -17.553699,
    "longitude": -149.606995,
    "iataCode": "PPT",
    "country": "PF",
    "municipality": "Papeete"
  },
  {
    "name": "Viru Viru International Airport",
    "latitude": -17.6448,
    "longitude": -63.135399,
    "iataCode": "VVI",
    "country": "BO",
    "municipality": "Santa Cruz"
  },
  {
    "name": "Sharjah International Airport",
    "latitude": 25.32859992980957,
    "longitude": 55.5172004699707,
    "iataCode": "SHJ",
    "country": "AE",
    "municipality": "Sharjah"
  },
  {
    "name": "Trivandrum International Airport",
    "latitude": 8.48211956024,
    "longitude": 76.9200973511,
    "iataCode": "TRV",
    "country": "IN",
    "municipality": "Thiruvananthapuram"
  },
  {
    "name": "Modlin Airport",
    "latitude": 52.451099,
    "longitude": 20.6518,
    "iataCode": "WMI",
    "country": "PL",
    "municipality": "Warsaw"
  },
  {
    "name": "Jeju International Airport",
    "latitude": 33.51129913330078,
    "longitude": 126.49299621582031,
    "iataCode": "CJU",
    "country": "KR",
    "municipality": "Jeju City"
  },
  {
    "name": "Dubuque Regional Airport",
    "latitude": 42.40200043,
    "longitude": -90.70950317,
    "iataCode": "DBQ",
    "country": "US",
    "municipality": "Dubuque"
  },
  {
    "name": "Lafayette Regional Airport",
    "latitude": 30.20529938,
    "longitude": -91.98760223,
    "iataCode": "LFT",
    "country": "US",
    "municipality": "Lafayette"
  },
  {
    "name": "Münster Osnabrück Airport",
    "latitude": 52.134601593,
    "longitude": 7.68483018875,
    "iataCode": "FMO",
    "country": "DE",
    "municipality": "Münster"
  },
  {
    "name": "Tancredo Neves International Airport",
    "latitude": -19.62444305419922,
    "longitude": -43.97194290161133,
    "iataCode": "CNF",
    "country": "BR",
    "municipality": "Belo Horizonte"
  },
  {
    "name": "Copernicus Wrocław Airport",
    "latitude": 51.1026992798,
    "longitude": 16.885799408,
    "iataCode": "WRO",
    "country": "PL",
    "municipality": "Wrocław"
  },
  {
    "name": "Xiamen Gaoqi International Airport",
    "latitude": 24.54400062561035,
    "longitude": 118.12799835205078,
    "iataCode": "XMN",
    "country": "CN",
    "municipality": "Xiamen"
  },
  {
    "name": "Liège Airport",
    "latitude": 50.63740158081055,
    "longitude": 5.443220138549805,
    "iataCode": "LGG",
    "country": "BE",
    "municipality": "Liège"
  },
  {
    "name": "Manas International Airport",
    "latitude": 43.0612983704,
    "longitude": 74.4776000977,
    "iataCode": "FRU",
    "country": "KG",
    "municipality": "Bishkek"
  },
  {
    "name": "Mehrabad International Airport",
    "latitude": 35.68920135498047,
    "longitude": 51.31340026855469,
    "iataCode": "THR",
    "country": "IR",
    "municipality": "Tehran"
  },
  {
    "name": "Varna Airport",
    "latitude": 43.232101,
    "longitude": 27.8251,
    "iataCode": "VAR",
    "country": "BG",
    "municipality": "Varna"
  },
  {
    "name": "Kenneth Kaunda International Airport",
    "latitude": -15.3308,
    "longitude": 28.4526,
    "iataCode": "LUN",
    "country": "ZM",
    "municipality": "Lusaka"
  },
  {
    "name": "Pointe-à-Pitre Le Raizet",
    "latitude": 16.265301,
    "longitude": -61.531799,
    "iataCode": "PTP",
    "country": "GP",
    "municipality": "Pointe-à-Pitre"
  },
  {
    "name": "Tripoli International Airport",
    "latitude": 32.6635017395,
    "longitude": 13.1590003967,
    "iataCode": "TIP",
    "country": "LY",
    "municipality": "Tripoli"
  },
  {
    "name": "Fort Worth Alliance Airport",
    "latitude": 32.9875984192,
    "longitude": -97.31880187990001,
    "iataCode": "AFW",
    "country": "US",
    "municipality": "Fort Worth"
  },
  {
    "name": "Chubu Centrair International Airport",
    "latitude": 34.8583984375,
    "longitude": 136.80499267578125,
    "iataCode": "NGO",
    "country": "JP",
    "municipality": "Tokoname"
  },
  {
    "name": "Podgorica Airport",
    "latitude": 42.359402,
    "longitude": 19.2519,
    "iataCode": "TGD",
    "country": "ME",
    "municipality": "Podgorica"
  },
  {
    "name": "Karlsruhe Baden-Baden Airport",
    "latitude": 48.7793998718,
    "longitude": 8.08049964905,
    "iataCode": "FKB",
    "country": "DE",
    "municipality": "Baden-Baden"
  },
  {
    "name": "Kigali International Airport",
    "latitude": -1.96863,
    "longitude": 30.1395,
    "iataCode": "KGL",
    "country": "RW",
    "municipality": "Kigali"
  },
  {
    "name": "Lajes Airport",
    "latitude": 38.761799,
    "longitude": -27.090799,
    "iataCode": "TER",
    "country": "PT",
    "municipality": "Praia da Vitória"
  },
  {
    "name": "General Ignacio P. Garcia International Airport",
    "latitude": 29.095899581900003,
    "longitude": -111.047996521,
    "iataCode": "HMO",
    "country": "MX",
    "municipality": "Hermosillo"
  },
  {
    "name": "João Paulo II Airport",
    "latitude": 37.7411994934,
    "longitude": -25.6979007721,
    "iataCode": "PDL",
    "country": "PT",
    "municipality": "Ponta Delgada"
  },
  {
    "name": "Tirana International Airport Mother Teresa",
    "latitude": 41.4146995544,
    "longitude": 19.7206001282,
    "iataCode": "TIA",
    "country": "AL",
    "municipality": "Tirana"
  },
  {
    "name": "Hercílio Luz International Airport",
    "latitude": -27.670278549194336,
    "longitude": -48.5525016784668,
    "iataCode": "FLN",
    "country": "BR",
    "municipality": "Florianópolis"
  },
  {
    "name": "Hangzhou Xiaoshan International Airport",
    "latitude": 30.22949981689453,
    "longitude": 120.43399810791016,
    "iataCode": "HGH",
    "country": "CN",
    "municipality": "Hangzhou"
  },
  {
    "name": "Wuhan Tianhe International Airport",
    "latitude": 30.7838,
    "longitude": 114.208,
    "iataCode": "WUH",
    "country": "CN",
    "municipality": "Wuhan"
  },
  {
    "name": "Norwich International Airport",
    "latitude": 52.6758003235,
    "longitude": 1.28278005123,
    "iataCode": "NWI",
    "country": "GB",
    "municipality": "Norwich"
  },
  {
    "name": "Tashkent International Airport",
    "latitude": 41.257900238,
    "longitude": 69.2811965942,
    "iataCode": "TAS",
    "country": "UZ",
    "municipality": "Tashkent"
  },
  {
    "name": "Eduardo Gomes International Airport",
    "latitude": -3.03861,
    "longitude": -60.049702,
    "iataCode": "MAO",
    "country": "BR",
    "municipality": "Manaus"
  },
  {
    "name": "Robin Hood Doncaster Sheffield Airport",
    "latitude": 53.4805378105,
    "longitude": -1.01065635681,
    "iataCode": "DSA",
    "country": "GB",
    "municipality": "Doncaster"
  },
  {
    "name": "Kaohsiung International Airport",
    "latitude": 22.57710075378418,
    "longitude": 120.3499984741211,
    "iataCode": "KHH",
    "country": "TW",
    "municipality": "Kaohsiung City"
  },
  {
    "name": "Nnamdi Azikiwe International Airport",
    "latitude": 9.006790161132812,
    "longitude": 7.263169765472412,
    "iataCode": "ABV",
    "country": "NG",
    "municipality": "Abuja"
  },
  {
    "name": "Adana Airport",
    "latitude": 36.9822006226,
    "longitude": 35.280399322499996,
    "iataCode": "ADA",
    "country": "TR",
    "municipality": "Adana"
  },
  {
    "name": "Joint Base Andrews",
    "latitude": 38.810799,
    "longitude": -76.866997,
    "iataCode": "ADW",
    "country": "US",
    "municipality": "Camp Springs"
  },
  {
    "name": "Guilin Liangjiang International Airport",
    "latitude": 25.21809959411621,
    "longitude": 110.03900146484375,
    "iataCode": "KWL",
    "country": "CN",
    "municipality": "Guilin City"
  },
  {
    "name": "Chongqing Jiangbei International Airport",
    "latitude": 29.719200134277344,
    "longitude": 106.64199829101562,
    "iataCode": "CKG",
    "country": "CN",
    "municipality": "Chongqing"
  },
  {
    "name": "Zhoushuizi Airport",
    "latitude": 38.9656982421875,
    "longitude": 121.53900146484375,
    "iataCode": "DLC",
    "country": "CN",
    "municipality": "Dalian"
  },
  {
    "name": "Prince Mohammad Bin Abdulaziz Airport",
    "latitude": 24.5534,
    "longitude": 39.705101,
    "iataCode": "MED",
    "country": "SA",
    "municipality": "Medina"
  },
  {
    "name": "Astana International Airport",
    "latitude": 51.02220153808594,
    "longitude": 71.46690368652344,
    "iataCode": "TSE",
    "country": "KZ",
    "municipality": "Astana"
  },
  {
    "name": "Joplin Regional Airport",
    "latitude": 37.151798248291016,
    "longitude": -94.49829864501953,
    "iataCode": "JLN",
    "country": "US",
    "municipality": "Joplin"
  },
  {
    "name": "Amílcar Cabral International Airport",
    "latitude": 16.7414,
    "longitude": -22.9494,
    "iataCode": "SID",
    "country": "CV",
    "municipality": "Espargos"
  },
  {
    "name": "Ndjili International Airport",
    "latitude": -4.38575,
    "longitude": 15.4446,
    "iataCode": "FIH",
    "country": "CD",
    "municipality": "Kinshasa"
  },
  {
    "name": "Quatro de Fevereiro Airport",
    "latitude": -8.85837,
    "longitude": 13.2312,
    "iataCode": "LAD",
    "country": "AO",
    "municipality": "Luanda"
  },
  {
    "name": "RAF Mildenhall",
    "latitude": 52.361900329589844,
    "longitude": 0.48640599846839905,
    "iataCode": "MHZ",
    "country": "GB",
    "municipality": "Mildenhall"
  },
  {
    "name": "King Fahd International Airport",
    "latitude": 26.471200942993164,
    "longitude": 49.79790115356445,
    "iataCode": "DMM",
    "country": "SA",
    "municipality": "Ad Dammam"
  },
  {
    "name": "Tri-State/Milton J. Ferguson Field",
    "latitude": 38.36669922,
    "longitude": -82.55799866,
    "iataCode": "HTS",
    "country": "US",
    "municipality": "Huntington"
  },
  {
    "name": "Shiraz Shahid Dastghaib International Airport",
    "latitude": 29.539199829101562,
    "longitude": 52.58980178833008,
    "iataCode": "SYZ",
    "country": "IR",
    "municipality": "Shiraz"
  },
  {
    "name": "Priština International Airport",
    "latitude": 42.5728,
    "longitude": 21.035801,
    "iataCode": "PRN",
    "country": "XK",
    "municipality": "Prishtina"
  },
  {
    "name": "Damascus International Airport",
    "latitude": 33.4114990234375,
    "longitude": 36.51559829711914,
    "iataCode": "DAM",
    "country": "SY",
    "municipality": "Damascus"
  },
  {
    "name": "Maputo Airport",
    "latitude": -25.920799,
    "longitude": 32.572601,
    "iataCode": "MPM",
    "country": "MZ",
    "municipality": "Maputo"
  },
  {
    "name": "Wright-Patterson Air Force Base",
    "latitude": 39.8260993958,
    "longitude": -84.0483016968,
    "iataCode": "FFO",
    "country": "US",
    "municipality": "Dayton"
  },
  {
    "name": "RAF Brize Norton",
    "latitude": 51.75,
    "longitude": -1.58362,
    "iataCode": "BZZ",
    "country": "GB",
    "municipality": "Brize Norton"
  },
  {
    "name": "Hasanuddin International Airport",
    "latitude": -5.061629772186279,
    "longitude": 119.55400085449219,
    "iataCode": "UPG",
    "country": "ID",
    "municipality": "Ujung Pandang-Celebes Island"
  },
  {
    "name": "Mandalay International Airport",
    "latitude": 21.702199935913086,
    "longitude": 95.97789764404297,
    "iataCode": "MDL",
    "country": "MM",
    "municipality": "Mandalay"
  },
  {
    "name": "Tianjin Binhai International Airport",
    "latitude": 39.124401092499994,
    "longitude": 117.346000671,
    "iataCode": "TSN",
    "country": "CN",
    "municipality": "Tianjin"
  },
  {
    "name": "Trabzon International Airport",
    "latitude": 40.99509811401367,
    "longitude": 39.78969955444336,
    "iataCode": "TZX",
    "country": "TR",
    "municipality": "Trabzon"
  },
  {
    "name": "Ramstein Air Base",
    "latitude": 49.4369010925293,
    "longitude": 7.600279808044434,
    "iataCode": "RMS",
    "country": "DE",
    "municipality": "Ramstein"
  },
  {
    "name": "Roberts International Airport",
    "latitude": 6.23379,
    "longitude": -10.3623,
    "iataCode": "ROB",
    "country": "LR",
    "municipality": "Monrovia"
  },
  {
    "name": "Kadena Air Base",
    "latitude": 26.3556,
    "longitude": 127.767998,
    "iataCode": "DNA",
    "country": "JP",
    "municipality": ""
  },
  {
    "name": "Travis Air Force Base",
    "latitude": 38.262699127197,
    "longitude": -121.92700195312,
    "iataCode": "SUU",
    "country": "US",
    "municipality": "Fairfield"
  },
  {
    "name": "La Palma Airport",
    "latitude": 28.626499,
    "longitude": -17.7556,
    "iataCode": "SPC",
    "country": "ES",
    "municipality": "Sta Cruz de la Palma, La Palma Island"
  },
  {
    "name": "Chinggis Khaan International Airport",
    "latitude": 47.843102,
    "longitude": 106.766998,
    "iataCode": "ULN",
    "country": "MN",
    "municipality": "Ulan Bator"
  },
  {
    "name": "King Shaka International Airport",
    "latitude": -29.6144444444,
    "longitude": 31.1197222222,
    "iataCode": "DUR",
    "country": "ZA",
    "municipality": "Durban"
  },
  {
    "name": "Sochi International Airport",
    "latitude": 43.449902,
    "longitude": 39.9566,
    "iataCode": "AER",
    "country": "RU",
    "municipality": "Sochi"
  },
  {
    "name": "Val de Cans/Júlio Cezar Ribeiro International Airport",
    "latitude": -1.3792500495900002,
    "longitude": -48.4762992859,
    "iataCode": "BEL",
    "country": "BR",
    "municipality": "Belém"
  },
  {
    "name": "Robert Gabriel Mugabe International Airport",
    "latitude": -17.931801,
    "longitude": 31.0928,
    "iataCode": "HRE",
    "country": "ZW",
    "municipality": "Harare"
  },
  {
    "name": "Luleå Airport",
    "latitude": 65.543800354004,
    "longitude": 22.121999740601,
    "iataCode": "LLA",
    "country": "SE",
    "municipality": "Luleå"
  },
  {
    "name": "Yokota Air Base",
    "latitude": 35.74850082397461,
    "longitude": 139.34800720214844,
    "iataCode": "OKO",
    "country": "JP",
    "municipality": "Fussa"
  },
  {
    "name": "Nanjing Lukou Airport",
    "latitude": 31.742000579833984,
    "longitude": 118.86199951171875,
    "iataCode": "NKG",
    "country": "CN",
    "municipality": "Nanjing"
  },
  {
    "name": "Enfidha - Hammamet International Airport",
    "latitude": 36.075833,
    "longitude": 10.438611,
    "iataCode": "NBE",
    "country": "TN",
    "municipality": "Enfidha"
  },
  {
    "name": "George Airport",
    "latitude": -34.0056,
    "longitude": 22.378902,
    "iataCode": "GRJ",
    "country": "ZA",
    "municipality": "George"
  },
  {
    "name": "Baghdad International Airport",
    "latitude": 33.262500762900004,
    "longitude": 44.2346000671,
    "iataCode": "BGW",
    "country": "IQ",
    "municipality": "Baghdad"
  },
  {
    "name": "Ivato Airport",
    "latitude": -18.7969,
    "longitude": 47.478802,
    "iataCode": "TNR",
    "country": "MG",
    "municipality": "Antananarivo"
  },
  {
    "name": "Scott AFB/Midamerica Airport",
    "latitude": 38.5452,
    "longitude": -89.835197,
    "iataCode": "BLV",
    "country": "US",
    "municipality": "Belleville"
  },
  {
    "name": "Tolmachevo Airport",
    "latitude": 55.012599945068,
    "longitude": 82.650703430176,
    "iataCode": "OVB",
    "country": "RU",
    "municipality": "Novosibirsk"
  },
  {
    "name": "Odessa International Airport",
    "latitude": 46.42679977416992,
    "longitude": 30.67650032043457,
    "iataCode": "ODS",
    "country": "UA",
    "municipality": "Odessa"
  },
  {
    "name": "Kagoshima Airport",
    "latitude": 31.80340003967285,
    "longitude": 130.718994140625,
    "iataCode": "KOJ",
    "country": "JP",
    "municipality": "Kagoshima"
  },
  {
    "name": "Koltsovo Airport",
    "latitude": 56.743099212646,
    "longitude": 60.802700042725,
    "iataCode": "SVX",
    "country": "RU",
    "municipality": "Yekaterinburg"
  },
  {
    "name": "Sri Guru Ram Dass Jee International Airport",
    "latitude": 31.7096004486,
    "longitude": 74.7973022461,
    "iataCode": "ATQ",
    "country": "IN",
    "municipality": "Amritsar"
  },
  {
    "name": "Yaoqiang Airport",
    "latitude": 36.857200622558594,
    "longitude": 117.21600341796875,
    "iataCode": "TNA",
    "country": "CN",
    "municipality": "Jinan"
  },
  {
    "name": "Sir Seretse Khama International Airport",
    "latitude": -24.555201,
    "longitude": 25.9182,
    "iataCode": "GBE",
    "country": "BW",
    "municipality": "Gaborone"
  },
  {
    "name": "Diori Hamani International Airport",
    "latitude": 13.4815,
    "longitude": 2.18361,
    "iataCode": "NIM",
    "country": "NE",
    "municipality": "Niamey"
  },
  {
    "name": "McChord Air Force Base",
    "latitude": 47.1376991272,
    "longitude": -122.475997925,
    "iataCode": "TCM",
    "country": "US",
    "municipality": "Tacoma"
  },
  {
    "name": "Rarotonga International Airport",
    "latitude": -21.2026996613,
    "longitude": -159.805999756,
    "iataCode": "RAR",
    "country": "CK",
    "municipality": "Avarua"
  },
  {
    "name": "Port Moresby Jacksons International Airport",
    "latitude": -9.443380355834961,
    "longitude": 147.22000122070312,
    "iataCode": "POM",
    "country": "PG",
    "municipality": "Port Moresby"
  },
  {
    "name": "Zvartnots International Airport",
    "latitude": 40.1473007202,
    "longitude": 44.3959007263,
    "iataCode": "EVN",
    "country": "AM",
    "municipality": "Yerevan"
  },
  {
    "name": "Ashgabat International Airport",
    "latitude": 37.986801,
    "longitude": 58.361,
    "iataCode": "ASB",
    "country": "TM",
    "municipality": "Ashgabat"
  },
  {
    "name": "Modibo Keita International Airport",
    "latitude": 12.5335,
    "longitude": -7.94994,
    "iataCode": "BKO",
    "country": "ML",
    "municipality": "Bamako"
  },
  {
    "name": "N'Djamena International Airport",
    "latitude": 12.1337,
    "longitude": 15.034,
    "iataCode": "NDJ",
    "country": "TD",
    "municipality": "N'Djamena"
  },
  {
    "name": "Al Maktoum International Airport",
    "latitude": 24.896356,
    "longitude": 55.161389,
    "iataCode": "DWC",
    "country": "AE",
    "municipality": "Jebel Ali"
  },
  {
    "name": "Governador Aluízio Alves International Airport",
    "latitude": -5.768056,
    "longitude": -35.376111,
    "iataCode": "NAT",
    "country": "BR",
    "municipality": "Natal"
  },
  {
    "name": "Mashhad International Airport",
    "latitude": 36.235198974609375,
    "longitude": 59.64099884033203,
    "iataCode": "MHD",
    "country": "IR",
    "municipality": "Mashhad"
  },
  {
    "name": "Zhengzhou Xinzheng International Airport",
    "latitude": 34.519699096699995,
    "longitude": 113.841003418,
    "iataCode": "CGO",
    "country": "CN",
    "municipality": "Zhengzhou"
  },
  {
    "name": "Calicut International Airport",
    "latitude": 11.1367998123,
    "longitude": 75.95529937740001,
    "iataCode": "CCJ",
    "country": "IN",
    "municipality": "Calicut"
  },
  {
    "name": "Juba International Airport",
    "latitude": 4.87201023102,
    "longitude": 31.6011009216,
    "iataCode": "JUB",
    "country": "SS",
    "municipality": "Juba"
  },
  {
    "name": "Range Regional Airport",
    "latitude": 47.38660049,
    "longitude": -92.83899689,
    "iataCode": "HIB",
    "country": "US",
    "municipality": "Hibbing"
  },
  {
    "name": "Taoxian Airport",
    "latitude": 41.639801025390625,
    "longitude": 123.48300170898438,
    "iataCode": "SHE",
    "country": "CN",
    "municipality": "Shenyang"
  },
  {
    "name": "Ningbo Lishe International Airport",
    "latitude": 29.82670021057129,
    "longitude": 121.46199798583984,
    "iataCode": "NGB",
    "country": "CN",
    "municipality": "Ningbo"
  },
  {
    "name": "Lungi International Airport",
    "latitude": 8.61644,
    "longitude": -13.1955,
    "iataCode": "FNA",
    "country": "SL",
    "municipality": "Freetown"
  },
  {
    "name": "Osan Air Base",
    "latitude": 37.090599,
    "longitude": 127.029999,
    "iataCode": "OSN",
    "country": "KR",
    "municipality": ""
  },
  {
    "name": "Dover Air Force Base",
    "latitude": 39.12950134,
    "longitude": -75.46600342,
    "iataCode": "DOV",
    "country": "US",
    "municipality": "Dover"
  },
  {
    "name": "Taiping Airport",
    "latitude": 45.6234016418457,
    "longitude": 126.25,
    "iataCode": "HRB",
    "country": "CN",
    "municipality": "Harbin"
  },
  {
    "name": "Ürümqi Diwopu International Airport",
    "latitude": 43.907100677490234,
    "longitude": 87.47419738769531,
    "iataCode": "URC",
    "country": "CN",
    "municipality": "Ürümqi"
  },
  {
    "name": "Francisco Bangoy International Airport",
    "latitude": 7.1255202293396,
    "longitude": 125.64600372314453,
    "iataCode": "DVO",
    "country": "PH",
    "municipality": "Davao City"
  },
  {
    "name": "Fuzhou Changle International Airport",
    "latitude": 25.935100555419922,
    "longitude": 119.66300201416016,
    "iataCode": "FOC",
    "country": "CN",
    "municipality": "Fuzhou"
  },
  {
    "name": "Simferopol International Airport",
    "latitude": 45.05220031738281,
    "longitude": 33.975101470947266,
    "iataCode": "SIP",
    "country": "UA",
    "municipality": "Simferopol"
  },
  {
    "name": "Erzurum International Airport",
    "latitude": 39.9565010071,
    "longitude": 41.17020034789999,
    "iataCode": "ERZ",
    "country": "TR",
    "municipality": "Erzurum"
  },
  {
    "name": "Taiyuan Wusu Airport",
    "latitude": 37.74689865112305,
    "longitude": 112.62799835205078,
    "iataCode": "TYN",
    "country": "CN",
    "municipality": "Taiyuan"
  },
  {
    "name": "Sanya Phoenix International Airport",
    "latitude": 18.302900314331055,
    "longitude": 109.41200256347656,
    "iataCode": "SYX",
    "country": "CN",
    "municipality": "Sanya"
  },
  {
    "name": "RAF Lakenheath",
    "latitude": 52.409301757799994,
    "longitude": 0.56099998951,
    "iataCode": "LKZ",
    "country": "GB",
    "municipality": "Lakenheath"
  },
  {
    "name": "Mac Dill Air Force Base",
    "latitude": 27.84930038,
    "longitude": -82.52120209,
    "iataCode": "MCF",
    "country": "US",
    "municipality": "Tampa"
  },
  {
    "name": "Kualanamu International Airport",
    "latitude": 3.642222,
    "longitude": 98.885278,
    "iataCode": "KNO",
    "country": "ID",
    "municipality": ""
  },
  {
    "name": "Tabriz International Airport",
    "latitude": 38.1338996887207,
    "longitude": 46.23500061035156,
    "iataCode": "TBZ",
    "country": "IR",
    "municipality": "Tabriz"
  },
  {
    "name": "Sentani International Airport",
    "latitude": -2.5769500733,
    "longitude": 140.5160064698,
    "iataCode": "DJJ",
    "country": "ID",
    "municipality": "Jayapura-Papua Island"
  },
  {
    "name": "Kazan International Airport",
    "latitude": 55.606201171875,
    "longitude": 49.278701782227,
    "iataCode": "KZN",
    "country": "RU",
    "municipality": "Kazan"
  },
  {
    "name": "Khabarovsk-Novy Airport",
    "latitude": 48.52799987793,
    "longitude": 135.18800354004,
    "iataCode": "KHV",
    "country": "RU",
    "municipality": "Khabarovsk"
  },
  {
    "name": "Barksdale Air Force Base",
    "latitude": 32.5018005371,
    "longitude": -93.6626968384,
    "iataCode": "BAD",
    "country": "US",
    "municipality": "Bossier City"
  },
  {
    "name": "Edwards Air Force Base",
    "latitude": 34.905399,
    "longitude": -117.884003,
    "iataCode": "EDW",
    "country": "US",
    "municipality": "Edwards"
  },
  {
    "name": "Langley Air Force Base",
    "latitude": 37.082901001,
    "longitude": -76.360496521,
    "iataCode": "LFI",
    "country": "US",
    "municipality": "Hampton"
  },
  {
    "name": "Tinker Air Force Base",
    "latitude": 35.414699554443,
    "longitude": -97.386596679688,
    "iataCode": "TIK",
    "country": "US",
    "municipality": "Oklahoma City"
  },
  {
    "name": "Tyndall Air Force Base",
    "latitude": 30.0695991516,
    "longitude": -85.57540130619999,
    "iataCode": "PAM",
    "country": "US",
    "municipality": "Panama City"
  },
  {
    "name": "Robins Air Force Base",
    "latitude": 32.6400985718,
    "longitude": -83.5919036865,
    "iataCode": "WRB",
    "country": "US",
    "municipality": "Warner Robins"
  },
  {
    "name": "RAF Akrotiri",
    "latitude": 34.590401,
    "longitude": 32.9879,
    "iataCode": "AKT",
    "country": "GB",
    "municipality": "Akrotiri"
  },
  {
    "name": "OR Tambo International Airport",
    "latitude": -26.1392,
    "longitude": 28.246,
    "iataCode": "JNB",
    "country": "ZA",
    "municipality": "Johannesburg"
  },
  {
    "name": "Mallam Aminu International Airport",
    "latitude": 12.0476,
    "longitude": 8.52462,
    "iataCode": "KAN",
    "country": "NG",
    "municipality": "Kano"
  },
  {
    "name": "Kurumoch International Airport",
    "latitude": 53.504901885986,
    "longitude": 50.16429901123,
    "iataCode": "KUF",
    "country": "RU",
    "municipality": "Samara"
  },
  {
    "name": "King Abdulaziz Air Base",
    "latitude": 26.265399932900003,
    "longitude": 50.152000427199994,
    "iataCode": "DHA",
    "country": "SA",
    "municipality": ""
  },
  {
    "name": "General José Antonio Anzoategui International Airport",
    "latitude": 10.111111,
    "longitude": -64.692222,
    "iataCode": "BLA",
    "country": "VE",
    "municipality": "Barcelona"
  },
  {
    "name": "Haikou Meilan International Airport",
    "latitude": 19.934900283813477,
    "longitude": 110.45899963378906,
    "iataCode": "HAK",
    "country": "CN",
    "municipality": "Haikou"
  },
  {
    "name": "Ouagadougou Airport",
    "latitude": 12.3532,
    "longitude": -1.51242,
    "iataCode": "OUA",
    "country": "BF",
    "municipality": "Ouagadougou"
  },
  {
    "name": "Altus Air Force Base",
    "latitude": 34.667098999,
    "longitude": -99.2667007446,
    "iataCode": "LTS",
    "country": "US",
    "municipality": "Altus"
  },
  {
    "name": "Gaziantep International Airport",
    "latitude": 36.9472007751,
    "longitude": 37.4786987305,
    "iataCode": "GZT",
    "country": "TR",
    "municipality": "Gaziantep"
  },
  {
    "name": "Yemelyanovo Airport",
    "latitude": 56.172901,
    "longitude": 92.493301,
    "iataCode": "KJA",
    "country": "RU",
    "municipality": "Krasnoyarsk"
  },
  {
    "name": "Holloman Air Force Base",
    "latitude": 32.8525009155,
    "longitude": -106.107002258,
    "iataCode": "HMN",
    "country": "US",
    "municipality": "Alamogordo"
  },
  {
    "name": "Columbus Air Force Base",
    "latitude": 33.6437988281,
    "longitude": -88.44380187990001,
    "iataCode": "CBM",
    "country": "US",
    "municipality": "Columbus"
  },
  {
    "name": "RAF Fairford",
    "latitude": 51.6822013855,
    "longitude": -1.7900300025900002,
    "iataCode": "FFD",
    "country": "GB",
    "municipality": "Fairford"
  },
  {
    "name": "Luke Air Force Base",
    "latitude": 33.534999847399995,
    "longitude": -112.383003235,
    "iataCode": "LUF",
    "country": "US",
    "municipality": "Glendale"
  },
  {
    "name": "Dobbins Air Reserve Base",
    "latitude": 33.91540146,
    "longitude": -84.51629639,
    "iataCode": "MGE",
    "country": "US",
    "municipality": "Marietta"
  },
  {
    "name": "Fairchild Air Force Base",
    "latitude": 47.6151008606,
    "longitude": -117.65599823,
    "iataCode": "SKA",
    "country": "US",
    "municipality": "Spokane"
  },
  {
    "name": "Kharkiv International Airport",
    "latitude": 49.924800872802734,
    "longitude": 36.290000915527344,
    "iataCode": "HRK",
    "country": "UA",
    "municipality": "Kharkiv"
  },
  {
    "name": "Ufa International Airport",
    "latitude": 54.557498931885,
    "longitude": 55.874401092529,
    "iataCode": "UFA",
    "country": "RU",
    "municipality": "Ufa"
  },
  {
    "name": "Aleppo International Airport",
    "latitude": 36.18069839477539,
    "longitude": 37.22439956665039,
    "iataCode": "ALP",
    "country": "SY",
    "municipality": "Aleppo"
  },
  {
    "name": "Randolph Air Force Base",
    "latitude": 29.52969933,
    "longitude": -98.27890015,
    "iataCode": "RND",
    "country": "US",
    "municipality": "Universal City"
  },
  {
    "name": "Cannon Air Force Base",
    "latitude": 34.3828010559,
    "longitude": -103.321998596,
    "iataCode": "CVS",
    "country": "US",
    "municipality": "Clovis"
  },
  {
    "name": "DLF Airport",
    "latitude": 29.359501,
    "longitude": -100.778002,
    "iataCode": "DLF",
    "country": "US",
    "municipality": "Del Rio"
  },
  {
    "name": "Wenzhou Longwan International Airport",
    "latitude": 27.912201,
    "longitude": 120.851997,
    "iataCode": "WNZ",
    "country": "CN",
    "municipality": "Wenzhou"
  },
  {
    "name": "Dominique Edward Osok Airport",
    "latitude": -0.894,
    "longitude": 131.287,
    "iataCode": "SOQ",
    "country": "ID",
    "municipality": "Sorong-Papua Island"
  },
  {
    "name": "Beijing Nanyuan Airport",
    "latitude": 39.782798767089844,
    "longitude": 116.38800048828125,
    "iataCode": "NAY",
    "country": "CN",
    "municipality": "Beijing"
  },
  {
    "name": "Laguindingan Airport",
    "latitude": 8.612203,
    "longitude": 124.456496,
    "iataCode": "CGY",
    "country": "PH",
    "municipality": "Cagayan de Oro City"
  },
  {
    "name": "Basrah International Airport",
    "latitude": 30.549100875854492,
    "longitude": 47.66210174560547,
    "iataCode": "BSR",
    "country": "IQ",
    "municipality": "Basrah"
  },
  {
    "name": "Sary-Arka Airport",
    "latitude": 49.670799255371094,
    "longitude": 73.33439636230469,
    "iataCode": "KGF",
    "country": "KZ",
    "municipality": "Karaganda"
  },
  {
    "name": "Ovda International Airport",
    "latitude": 29.94029998779297,
    "longitude": 34.93579864501953,
    "iataCode": "VDA",
    "country": "IL",
    "municipality": "Eilat"
  },
  {
    "name": "Baita International Airport",
    "latitude": 40.851398,
    "longitude": 111.823997,
    "iataCode": "HET",
    "country": "CN",
    "municipality": "Hohhot"
  },
  {
    "name": "Süleyman Demirel International Airport",
    "latitude": 37.8554000854,
    "longitude": 30.368400573699997,
    "iataCode": "ISE",
    "country": "TR",
    "municipality": "Isparta"
  },
  {
    "name": "Dyess Air Force Base",
    "latitude": 32.4207992554,
    "longitude": -99.854598999,
    "iataCode": "DYS",
    "country": "US",
    "municipality": "Abilene"
  },
  {
    "name": "Mountain Home Air Force Base",
    "latitude": 43.043598,
    "longitude": -115.872002,
    "iataCode": "MUO",
    "country": "US",
    "municipality": "Mountain Home"
  },
  {
    "name": "Grissom Air Reserve Base",
    "latitude": 40.648101806599996,
    "longitude": -86.1520996094,
    "iataCode": "GUS",
    "country": "US",
    "municipality": "Peru"
  },
  {
    "name": "Kinmen Airport",
    "latitude": 24.4279,
    "longitude": 118.359001,
    "iataCode": "KNH",
    "country": "TW",
    "municipality": "Shang-I"
  },
  {
    "name": "Shaw Air Force Base",
    "latitude": 33.97269821,
    "longitude": -80.47059631,
    "iataCode": "SSC",
    "country": "US",
    "municipality": "Sumter"
  },
  {
    "name": "Longdongbao Airport",
    "latitude": 26.53849983215332,
    "longitude": 106.8010025024414,
    "iataCode": "KWE",
    "country": "CN",
    "municipality": "Guiyang"
  },
  {
    "name": "Egal International Airport",
    "latitude": 9.513207,
    "longitude": 44.082389,
    "iataCode": "HGA",
    "country": "SO",
    "municipality": "Hargeisa"
  },
  {
    "name": "Cotopaxi International Airport",
    "latitude": -0.906833,
    "longitude": -78.615799,
    "iataCode": "LTX",
    "country": "EC",
    "municipality": "Latacunga"
  },
  {
    "name": "Sialkot Airport",
    "latitude": 32.5355567932,
    "longitude": 74.3638916016,
    "iataCode": "SKT",
    "country": "PK",
    "municipality": "Sialkot"
  },
  {
    "name": "Nanning Wuxu Airport",
    "latitude": 22.608299255371094,
    "longitude": 108.1719970703125,
    "iataCode": "NNG",
    "country": "CN",
    "municipality": "Nanning"
  },
  {
    "name": "Cheongju International Airport/Cheongju Air Base (K-59/G-513)",
    "latitude": 36.717008,
    "longitude": 127.498741,
    "iataCode": "CJJ",
    "country": "KR",
    "municipality": "Cheongju"
  },
  {
    "name": "Vance Air Force Base",
    "latitude": 36.339199066199996,
    "longitude": -97.9164962769,
    "iataCode": "END",
    "country": "US",
    "municipality": "Enid"
  },
  {
    "name": "Vandenberg Air Force Base",
    "latitude": 34.7373008728,
    "longitude": -120.583999634,
    "iataCode": "VBG",
    "country": "US",
    "municipality": "Lompoc"
  },
  {
    "name": "Beale Air Force Base",
    "latitude": 39.136100769,
    "longitude": -121.43699646,
    "iataCode": "BAB",
    "country": "US",
    "municipality": "Marysville"
  },
  {
    "name": "Blaise Diagne International Airport",
    "latitude": 14.67,
    "longitude": -17.073333,
    "iataCode": "DSS",
    "country": "SN",
    "municipality": "Dakar"
  },
  {
    "name": "Mt. Fuji Shizuoka Airport",
    "latitude": 34.7960434679,
    "longitude": 138.18775177,
    "iataCode": "FSZ",
    "country": "JP",
    "municipality": "Makinohara / Shimada"
  },
  {
    "name": "Nouakchott–Oumtounsy International Airport",
    "latitude": 18.31,
    "longitude": -15.9697222,
    "iataCode": "NKC",
    "country": "MR",
    "municipality": "Nouakchott"
  },
  {
    "name": "Akwa Ibom International Airport",
    "latitude": 4.8725,
    "longitude": 8.093,
    "iataCode": "QUO",
    "country": "NG",
    "municipality": "Uyo"
  },
  {
    "name": "Yantai Penglai International Airport",
    "latitude": 37.657222,
    "longitude": 120.987222,
    "iataCode": "YNT",
    "country": "CN",
    "municipality": "Yantai"
  },
  {
    "name": "Kunsan Air Base",
    "latitude": 35.90380096435547,
    "longitude": 126.61599731445312,
    "iataCode": "KUV",
    "country": "KR",
    "municipality": "Kunsan"
  },
  {
    "name": "Changsha Huanghua International Airport",
    "latitude": 28.189199447599997,
    "longitude": 113.220001221,
    "iataCode": "CSX",
    "country": "CN",
    "municipality": "Changsha"
  },
  {
    "name": "Bassel Al-Assad International Airport",
    "latitude": 35.401100158691406,
    "longitude": 35.948699951171875,
    "iataCode": "LTK",
    "country": "SY",
    "municipality": "Latakia"
  },
  {
    "name": "Seymour Johnson Air Force Base",
    "latitude": 35.33940125,
    "longitude": -77.96060181,
    "iataCode": "GSB",
    "country": "US",
    "municipality": "Goldsboro"
  },
  {
    "name": "Whiteman Air Force Base",
    "latitude": 38.73030090332,
    "longitude": -93.547897338867,
    "iataCode": "SZL",
    "country": "US",
    "municipality": "Knob Noster"
  },
  {
    "name": "Beijing Daxing International Airport",
    "latitude": 39.509945,
    "longitude": 116.41092,
    "iataCode": "PKX",
    "country": "CN",
    "municipality": "Beijing"
  },
  {
    "name": "Grozny North Airport",
    "latitude": 43.388302,
    "longitude": 45.698601,
    "iataCode": "GRV",
    "country": "RU",
    "municipality": "Grozny"
  },
  {
    "name": "O R Tambo International",
    "latitude": -26.1392,
    "longitude": 28.246,
    "iataCode": "JNB",
    "country": "ZA",
    "municipality": "Johannesburg"
  },
  {
    "name": "Platov International Airport",
    "latitude": 47.493888,
    "longitude": 39.924722,
    "iataCode": "ROV",
    "country": "RU",
    "municipality": "Rostov-on-Don"
  },
  {
    "name": "Avord (BA 702) Air Base",
    "latitude": 47.053299,
    "longitude": 2.6325,
    "iataCode": "",
    "country": "FR",
    "municipality": "Avord"
  },
  {
    "name": "Ukrainka Air Base",
    "latitude": 51.169997,
    "longitude": 128.445007,
    "iataCode": "",
    "country": "RU",
    "municipality": "Belogorsk"
  },
  {
    "name": "New Islamabad International Airport",
    "latitude": 33.560713,
    "longitude": 72.851613,
    "iataCode": "ISB",
    "country": "PK",
    "municipality": "Islamabad"
  },
  {
    "name": "Lipetsk Air Base",
    "latitude": 52.6349983215332,
    "longitude": 39.44499969482422,
    "iataCode": "",
    "country": "RU",
    "municipality": "Lipetsk"
  },
  {
    "name": "Zhukovsky International Airport",
    "latitude": 55.553299,
    "longitude": 38.150002,
    "iataCode": "ZIA",
    "country": "RU",
    "municipality": "Moscow"
  },
  {
    "name": "Olenya Air Base",
    "latitude": 68.151802062988,
    "longitude": 33.463901519775,
    "iataCode": "",
    "country": "RU",
    "municipality": "Olenegorsk"
  },
  {
    "name": "Borisoglebskoye Airport",
    "latitude": 55.86669921875,
    "longitude": 49.13330078125,
    "iataCode": "",
    "country": "RU",
    "municipality": "Kazan"
  },
  {
    "name": "Mattala Rajapaksa International Airport",
    "latitude": 6.284467,
    "longitude": 81.124128,
    "iataCode": "HRI",
    "country": "LK",
    "municipality": ""
  },
  {
    "name": "Guodu air base",
    "latitude": 36.001741,
    "longitude": 117.63201,
    "iataCode": "",
    "country": "CN",
    "municipality": ""
  },
  {
    "name": "Financial Services business and personal loans no collateral require",
    "latitude": 90,
    "longitude": 90,
    "iataCode": "",
    "country": "SA",
    "municipality": ""
  },
  {
    "name": "Rustaq Airport",
    "latitude": 23.640556,
    "longitude": 57.4875,
    "iataCode": "MNH",
    "country": "OM",
    "municipality": "Al Masna'ah"
  },
  {
    "name": "Tamim Airbase",
    "latitude": 25.467722,
    "longitude": 50.999479,
    "iataCode": "",
    "country": "QA",
    "municipality": "Dukhan"
  },
  {
    "name": "Duqm International Airport",
    "latitude": 19.501944,
    "longitude": 57.634167,
    "iataCode": "DQM",
    "country": "OM",
    "municipality": "Duqm"
  },
  {
    "name": "Northern Cagayan International Airport",
    "latitude": 18.182388,
    "longitude": 121.745853,
    "iataCode": "",
    "country": "PH",
    "municipality": "Lal-lo"
  },
  {
    "name": "Muan International Airport",
    "latitude": 34.991406,
    "longitude": 126.382814,
    "iataCode": "MWX",
    "country": "KR",
    "municipality": "Piseo-ri (Muan)"
  },
  {
    "name": "Aji Pangeran Tumenggung Pranoto International Airport",
    "latitude": -0.374448,
    "longitude": 117.249392,
    "iataCode": "AAP",
    "country": "ID",
    "municipality": "Samarinda"
  },
  {
    "name": "Çukurova Airport",
    "latitude": 36.895545,
    "longitude": 35.069381,
    "iataCode": "",
    "country": "TR",
    "municipality": "Tarsus"
  }
]
